address,bathrooms,country,detailedType_typology,detailedType_subTypology,distance,district,exterior,externalReference,floor,has360,has3DTour,hasLift,hasPlan,hasVideo,latitude,longitude,municipality,neighborhood,newDevelopment,numPhotos,operation,hasParkingSpace,parkingSpaceIncluded,parkingSpacePrice,price,priceByArea,propertyCode,propertyType,province,rooms,showAddress,size,status,suggestedTexts_subtitle,suggestedTexts_title,thumbnail,url,geopoint,prediction,Discount%,benefits,GoodDeal
"calle de San Restituto, 14",1,es,flat,,5370,Moncloa,True,,3,False,False,True,False,False,40.4646941,-3.7107396,Madrid,Valdezarza,False,6,rent,True,True,,450.0,11.0,3.9665037E7,flat,Madrid,1,True,42.0,good,"Valdezarza, Madrid","Piso en calle de San Restituto, 14",https://img3.idealista.com/blur/WEB_LISTING/0/id.pro.es.image.master/e0/e1/14/618567745.jpg,https://www.idealista.com/inmueble/39665037/,POINT(-3.7107396 40.4646941),701.9521916575222,36,251.95219165752223,1
saliente,4,es,chalet,independantHouse,12096,Urbanizaciones,False,,0,False,False,False,False,False,40.4330817,-3.8454306,Pozuelo de Alarcón,Montealina,False,41,rent,True,True,,1900.0,5.0,8.2149948E7,chalet,Madrid,4,False,375.0,good,"Montealina, Pozuelo de Alarcón",Casa independiente en saliente,https://img3.idealista.com/blur/WEB_LISTING/0/id.pro.es.image.master/5d/28/cd/592374865.jpg,https://www.idealista.com/inmueble/82149948/,POINT(-3.8454306 40.4330817),3139.8316593008008,39,1239.8316593008008,1
"calle Mallorca, 3",1,es,flat,,1192,Centro,True,,0,False,False,True,False,False,40.4071354,-3.697682,Madrid,Lavapiés-Embajadores,False,12,rent,,,,1200.0,17.0,3.7138962E7,flat,Madrid,3,True,70.0,good,"Lavapiés-Embajadores, Madrid","Piso en calle Mallorca, 3",https://img3.idealista.com/blur/WEB_LISTING/0/id.pro.es.image.master/83/28/f9/215085503.jpg,https://www.idealista.com/inmueble/37138962/,POINT(-3.697682 40.4071354),1155.8588022224988,-4,-44.14119777750125,0
"calle Valmojado, 181",3,es,flat,,5422,Latina,True,,5,False,False,True,False,False,40.3899565,-3.7577512,Madrid,Aluche,False,7,rent,True,True,,650.0,8.0,8.3311256E7,flat,Madrid,3,True,79.0,good,"Aluche, Madrid","Piso en calle Valmojado, 181",https://img3.idealista.com/blur/WEB_LISTING/0/id.pro.es.image.master/bc/de/9f/618574517.jpg,https://www.idealista.com/inmueble/83311256/,POINT(-3.7577512 40.3899565),1425.957930223683,54,775.957930223683,1
"avenida donostiarra, 21",2,es,flat,,4326,Ciudad Lineal,True,,11,False,False,True,False,False,40.4345648,-3.6587854,Madrid,Concepción,False,6,rent,True,True,,550.0,8.0,3.1436202E7,flat,Madrid,2,True,65.0,good,"Concepción, Madrid","Piso en avenida donostiarra, 21",https://img3.idealista.com/blur/WEB_LISTING/0/id.pro.es.image.master/f7/ca/bb/618572008.jpg,https://www.idealista.com/inmueble/31436202/,POINT(-3.6587854 40.4345648),1144.8554505423617,52,594.8554505423617,1
"calle de la Fuente del Berro, 37",1,es,flat,,2919,Salamanca,False,,1,False,False,True,False,False,40.4236009,-3.6709046,Madrid,Goya,False,27,rent,,,,1400.0,28.0,3.5885404E7,flat,Madrid,2,True,50.0,good,"Goya, Madrid","Piso en calle de la Fuente del Berro, 37",https://img3.idealista.com/blur/WEB_LISTING/0/id.pro.es.image.master/21/ab/84/188357293.jpg,https://www.idealista.com/inmueble/35885404/,POINT(-3.6709046 40.4236009),1215.379246389805,-15,-184.62075361019492,0
"calle de José Ortega y Gasset, Madrid",1,es,flat,,3034,Salamanca,False,,7,False,False,True,False,False,40.4309973,-3.673658,Madrid,Lista,False,5,rent,,,,1050.0,16.0,8.3243159E7,flat,Madrid,2,False,65.0,good,"Lista, Madrid","Piso en calle de José Ortega y Gasset, Madrid",https://img3.idealista.com/blur/WEB_LISTING/0/id.pro.es.image.master/02/08/ac/614255907.jpg,https://www.idealista.com/inmueble/83243159/,POINT(-3.673658 40.4309973),1331.9806243515084,21,281.98062435150837,1
"calle Reina, Madrid, 39",2,es,flat,,650,Centro,True,MADRID,1,False,False,True,False,False,40.4197143,-3.6976117,Madrid,Chueca-Justicia,False,7,rent,True,True,,500.0,6.0,8.3065105E7,flat,Madrid,2,True,90.0,good,"Chueca-Justicia, Madrid","Piso en calle Reina, Madrid, 39",https://img3.idealista.com/blur/WEB_LISTING/0/id.pro.es.image.master/5c/bf/f9/618590698.jpg,https://www.idealista.com/inmueble/83065105/,POINT(-3.6976117 40.4197143),1971.5488399565008,75,1471.5488399565008,1
"calle Hermanos Bécquer, Madrid",3,es,flat,,2340,Salamanca,True,7/1074,1,False,False,True,False,False,40.433944,-3.6883836,Madrid,Castellana,False,36,rent,,,,2700.0,15.0,8.2730214E7,flat,Madrid,3,False,185.0,good,"Castellana, Madrid","Piso en calle Hermanos Bécquer, Madrid",https://img3.idealista.com/blur/WEB_LISTING/0/id.pro.es.image.master/d9/c8/45/603878438.jpg,https://www.idealista.com/inmueble/82730214/,POINT(-3.6883836 40.433944),2842.2470184295025,5,142.24701842950253,1
"calle Alcolea, 6",1,es,flat,,6328,Tetuán,True,,1,False,False,False,False,False,40.4726149,-3.690494,Madrid,Ventilla-Almenara,False,15,rent,,,,800.0,18.0,8.1849696E7,flat,Madrid,1,True,45.0,good,"Ventilla-Almenara, Madrid","Piso en calle Alcolea, 6",https://img3.idealista.com/blur/WEB_LISTING/90/id.pro.es.image.master/5a/df/05/616248716.jpg,https://www.idealista.com/inmueble/81849696/,POINT(-3.690494 40.4726149),776.5146165612309,-3,-23.485383438769077,0
duque de pastrana,3,es,flat,,5965,Chamartín,True,,1,False,False,True,False,False,40.4667309,-3.6788611,Madrid,Castilla,False,7,rent,True,True,,3200.0,12.0,8.2726394E7,flat,Madrid,4,False,260.0,good,"Castilla, Madrid",Piso en duque de pastrana,https://img3.idealista.com/blur/WEB_LISTING/0/id.pro.es.image.master/a2/56/79/603508787.jpg,https://www.idealista.com/inmueble/82726394/,POINT(-3.6788611 40.4667309),2953.369703832886,-8,-246.630296167114,0
"calle Dos Hermanas, Madrid, 17",2,es,flat,penthouse,724,Centro,True,28-852823,4,False,False,True,False,False,40.410276,-3.7058888,Madrid,Lavapiés-Embajadores,False,30,rent,,,,2000.0,15.0,8.2838135E7,penthouse,Madrid,5,True,137.0,good,"Lavapiés-Embajadores, Madrid","Ático en calle Dos Hermanas, Madrid, 17",https://img3.idealista.com/blur/WEB_LISTING/0/id.pro.es.image.master/d8/2d/5b/606098543.jpg,https://www.idealista.com/inmueble/82838135/,POINT(-3.7058888 40.410276),1952.1499871437077,-2,-47.850012856292324,0
"calle de Alcalá, Madrid, 90",1,es,flat,penthouse,2291,Salamanca,False,,6,False,False,True,False,False,40.4233164,-3.6785468,Madrid,Goya,False,13,rent,,,,1200.0,17.0,8.309874E7,penthouse,Madrid,1,True,70.0,good,"Goya, Madrid","Ático en calle de Alcalá, Madrid, 90",https://img3.idealista.com/blur/WEB_LISTING/90/id.pro.es.image.master/8f/2f/27/611538796.jpg,https://www.idealista.com/inmueble/83098740/,POINT(-3.6785468 40.4233164),1365.0204035685185,12,165.02040356851853,1
"calle Rosa Menéndez, Madrid, 26",1,es,flat,,4925,Tetuán,True,Rosa Menéndez,1,False,False,True,False,False,40.4608846,-3.7073534,Madrid,Berruguete,False,6,rent,,,,780.0,20.0,8.3020845E7,flat,Madrid,1,True,40.0,good,"Berruguete, Madrid","Piso en calle Rosa Menéndez, Madrid, 26",https://img3.idealista.com/blur/WEB_LISTING/0/id.pro.es.image.master/c2/36/67/611834418.jpg,https://www.idealista.com/inmueble/83020845/,POINT(-3.7073534 40.4608846),735.35630192806,-6,-44.64369807193998,0
"calle del Prado, 29",1,es,flat,,592,Centro,True,,3,False,False,True,False,False,40.4153679,-3.6973695,Madrid,Huertas-Cortes,False,17,rent,,,,1200.0,24.0,8.3282273E7,flat,Madrid,1,True,50.0,good,"Huertas-Cortes, Madrid","Piso en calle del Prado, 29",https://img3.idealista.com/blur/WEB_LISTING/0/id.pro.es.image.master/6a/fa/2a/614943206.jpg,https://www.idealista.com/inmueble/83282273/,POINT(-3.6973695 40.4153679),1194.2515077630037,0,-5.748492236996299,0
calle de Claudio Coello,4,es,flat,penthouse,1935,Salamanca,True,994,5,False,False,True,False,False,40.4274814,-3.6862596,Madrid,Castellana,False,56,rent,True,True,,3950.0,16.0,8.1345556E7,penthouse,Madrid,4,False,240.0,good,"Castellana, Madrid",Ático en calle de Claudio Coello,https://img3.idealista.com/blur/WEB_LISTING/0/id.pro.es.image.master/04/4d/e6/593203125.jpg,https://www.idealista.com/inmueble/81345556/,POINT(-3.6862596 40.4274814),3599.845298287529,-10,-350.1547017124708,0
barrio Castilla,4,es,flat,,6483,Chamartín,True,A16700,1,False,False,True,False,False,40.4713023,-3.6774186,Madrid,Castilla,False,43,rent,True,True,,3700.0,19.0,8.3423794E7,flat,Madrid,4,False,200.0,good,"Castilla, Madrid",Piso,https://img3.idealista.com/blur/WEB_LISTING/0/id.pro.es.image.master/83/21/9d/618514376.jpg,https://www.idealista.com/inmueble/83423794/,POINT(-3.6774186 40.4713023),2826.5435159363483,-31,-873.4564840636517,0
barrio Recoletos,2,es,flat,penthouse,2051,Salamanca,True,150037,7,False,False,True,True,False,40.4237558,-3.6817995,Madrid,Recoletos,False,24,rent,,,,3300.0,14.0,4.039749E7,penthouse,Madrid,3,False,230.0,good,"Recoletos, Madrid",Ático,https://img3.idealista.com/blur/WEB_LISTING/0/id.pro.es.image.master/a4/50/7d/279509808.jpg,https://www.idealista.com/inmueble/40397490/,POINT(-3.6817995 40.4237558),3209.18232852623,-3,-90.81767147377013,0
cronos,1,es,flat,duplex,7554,San Blas,True,Cronos Duplex,4,False,False,True,False,False,40.4396137,-3.6201516,Madrid,Simancas,False,13,rent,True,True,,900.0,13.0,8.2617639E7,duplex,Madrid,1,False,70.0,good,"Simancas, Madrid",Dúplex en cronos,https://img3.idealista.com/blur/WEB_LISTING/0/id.pro.es.image.master/6b/86/48/615135408.jpg,https://www.idealista.com/inmueble/82617639/,POINT(-3.6201516 40.4396137),894.3769374046183,-1,-5.623062595381725,0
"calle de la Ballesta, Madrid",1,es,flat,,679,Centro,False,Richard Telf: 689370919.,-1,False,False,False,False,False,40.4225412,-3.7020117,Madrid,Malasaña-Universidad,False,17,rent,,,,900.0,30.0,8.3294073E7,flat,Madrid,2,False,30.0,good,"Malasaña-Universidad, Madrid","Piso en calle de la Ballesta, Madrid",https://img3.idealista.com/blur/WEB_LISTING/0/id.pro.es.image.master/15/d6/f8/615157612.jpg,https://www.idealista.com/inmueble/83294073/,POINT(-3.7020117 40.4225412),927.9175944577911,3,27.917594457791097,1
calle de Santa Cruz de Marcenado,1,es,flat,,1687,Centro,True,STC,3,False,False,True,False,False,40.4311329,-3.710155,Madrid,Malasaña-Universidad,False,17,rent,,,,1350.0,12.0,8.2388158E7,flat,Madrid,2,False,110.0,good,"Malasaña-Universidad, Madrid",Piso en calle de Santa Cruz de Marcenado,https://img3.idealista.com/blur/WEB_LISTING/0/id.pro.es.image.master/8d/c9/6e/597144333.jpg,https://www.idealista.com/inmueble/82388158/,POINT(-3.710155 40.4311329),1579.8240737559472,15,229.8240737559472,1
calle de la Flora,1,es,flat,,515,Centro,True,JSC-A-3382,1,False,False,True,False,False,40.4198985,-3.7085094,Madrid,Sol,False,30,rent,,,,2500.0,15.0,8.343111E7,flat,Madrid,1,False,170.0,good,"Sol, Madrid",Piso en calle de la Flora,https://img3.idealista.com/blur/WEB_LISTING/0/id.pro.es.image.master/0f/d9/9b/617881567.jpg,https://www.idealista.com/inmueble/83431110/,POINT(-3.7085094 40.4198985),1963.777313039949,-27,-536.2226869600511,0
"calle de José Ortega y Gasset, Madrid",2,es,flat,,3043,Salamanca,True,W-02DY9Y,3,False,False,True,True,False,40.4281039,-3.6715093,Madrid,Lista,False,29,rent,True,True,,2900.0,19.0,8.2739615E7,flat,Madrid,2,False,154.0,good,"Lista, Madrid","Piso en calle de José Ortega y Gasset, Madrid",https://img3.idealista.com/blur/WEB_LISTING/0/id.pro.es.image.master/7f/a8/ae/603774954.jpg,https://www.idealista.com/inmueble/82739615/,POINT(-3.6715093 40.4281039),2430.5873087506793,-19,-469.4126912493207,0
FRANCISCO SANCHA,2,es,flat,,8162,Fuencarral,True,03972,3,False,False,True,True,True,40.4888685,-3.6868405,Madrid,Tres Olivos - Valverde,False,25,rent,True,True,,1000.0,10.0,8.3230669E7,flat,Madrid,2,False,105.0,good,"Tres Olivos - Valverde, Madrid",Piso en FRANCISCO SANCHA,https://img3.idealista.com/blur/WEB_LISTING/0/id.pro.es.image.master/d7/bd/60/614009925.jpg,https://www.idealista.com/inmueble/83230669/,POINT(-3.6868405 40.4888685),1201.2672039024574,17,201.26720390245737,1
"calle rafael calvo, 22",2,es,flat,,2114,Chamberí,True,,4,False,False,True,False,False,40.433909,-3.6936448,Madrid,Almagro,False,32,rent,,,,2000.0,12.0,3.1238824E7,flat,Madrid,3,True,163.0,good,"Almagro, Madrid","Piso en calle rafael calvo, 22",https://img3.idealista.com/blur/WEB_LISTING/0/id.pro.es.image.master/dd/c5/e8/595499553.jpg,https://www.idealista.com/inmueble/31238824/,POINT(-3.6936448 40.433909),2426.2815608082155,18,426.28156080821554,1
barrio Almagro,4,es,flat,,1777,Chamberí,True,slpp29,1,False,False,True,False,False,40.4306061,-3.6939052,Madrid,Almagro,False,30,rent,,,,4000.0,13.0,8.2422732E7,flat,Madrid,3,False,319.0,good,"Almagro, Madrid",Piso,https://img3.idealista.com/blur/WEB_LISTING/0/id.pro.es.image.master/a3/27/e5/604914634.jpg,https://www.idealista.com/inmueble/82422732/,POINT(-3.6939052 40.4306061),3790.608836580911,-6,-209.39116341908903,0
"avenida Ciudad de Barcelona, Madrid",1,es,flat,,2676,Retiro,True,04455,1,False,False,False,False,False,40.4011427,-3.6799937,Madrid,Pacífico,False,25,rent,,,,1000.0,16.0,8.3227656E7,flat,Madrid,2,False,61.0,good,"Pacífico, Madrid","Piso en avenida Ciudad de Barcelona, Madrid",https://img3.idealista.com/blur/WEB_LISTING/0/id.pro.es.image.master/eb/09/f6/613947207.jpg,https://www.idealista.com/inmueble/83227656/,POINT(-3.6799937 40.4011427),845.468258996423,-18,-154.53174100357705,0
"calle Francisco Sancha, 22",2,es,flat,penthouse,7999,Fuencarral,True,,3,False,False,True,False,False,40.4875685,-3.6882405,Madrid,Tres Olivos - Valverde,False,19,rent,True,False,100.0,1000.0,10.0,8.2296826E7,penthouse,Madrid,2,True,105.0,good,"Tres Olivos - Valverde, Madrid","Ático en calle Francisco Sancha, 22",https://img3.idealista.com/blur/WEB_LISTING/0/id.pro.es.image.master/43/ed/ac/614930558.jpg,https://www.idealista.com/inmueble/82296826/,POINT(-3.6882405 40.4875685),1172.2833784138934,15,172.2833784138934,1
barrio Opañel,1,es,flat,,2769,Carabanchel,False,VI-000-030-686-778,0,False,False,False,False,False,40.3950805,-3.720501,Madrid,Opañel,False,15,rent,,,,575.0,9.0,8.1640855E7,flat,Madrid,2,False,61.0,good,"Opañel, Madrid",Piso,https://img3.idealista.com/blur/WEB_LISTING/0/id.pro.es.image.master/8c/18/17/581392872.jpg,https://www.idealista.com/inmueble/81640855/,POINT(-3.720501 40.3950805),468.69818675945817,-23,-106.30181324054183,0
barrio Sol,2,es,flat,,356,Centro,True,,1,False,False,True,False,False,40.4194985,-3.7061094,Madrid,Sol,False,33,rent,,,,2500.0,15.0,8.2243663E7,flat,Madrid,1,False,170.0,good,"Sol, Madrid",Piso,https://img3.idealista.com/blur/WEB_LISTING/0/id.pro.es.image.master/b1/81/23/594128501.jpg,https://www.idealista.com/inmueble/82243663/,POINT(-3.7061094 40.4194985),2189.0904557583617,-14,-310.9095442416383,0
"calle del Mesón de Paredes, 54",1,es,flat,,832,Centro,True,,2,False,False,False,False,False,40.4091699,-3.7038218,Madrid,Lavapiés-Embajadores,False,7,rent,,,,500.0,14.0,8.3017343E7,flat,Madrid,1,True,35.0,good,"Lavapiés-Embajadores, Madrid","Piso en calle del Mesón de Paredes, 54",https://img3.idealista.com/blur/WEB_LISTING/0/id.pro.es.image.master/98/d2/1c/609891336.jpg,https://www.idealista.com/inmueble/83017343/,POINT(-3.7038218 40.4091699),791.6148035834981,37,291.6148035834981,1
calle de Velazquez,1,es,flat,,2156,Salamanca,True,1820,6,False,False,True,False,False,40.4266043,-3.6822922,Madrid,Recoletos,False,5,rent,,,,1574.0,23.0,2.7286715E7,flat,Madrid,1,False,69.0,good,"Recoletos, Madrid",Piso en calle de Velazquez,https://img3.idealista.com/blur/WEB_LISTING/0/id.pro.es.image.master/66/47/8a/118730800.jpg,https://www.idealista.com/inmueble/27286715/,POINT(-3.6822922 40.4266043),1707.3174723137988,8,133.31747231379882,1
barrio Goya,1,es,flat,,2773,Salamanca,True,,1,False,False,True,False,False,40.4228446,-3.6724179,Madrid,Goya,False,7,rent,,,,950.0,12.0,8.3018775E7,flat,Madrid,2,False,80.0,good,"Goya, Madrid",Piso,https://img3.idealista.com/blur/WEB_LISTING/0/id.pro.es.image.master/12/02/55/609915833.jpg,https://www.idealista.com/inmueble/83018775/,POINT(-3.6724179 40.4228446),1508.6942441781323,37,558.6942441781323,1
"paseo de la Castellana, 157",1,es,flat,studio,5041,Tetuán,True,AIDE77400050071,2,False,False,True,False,True,40.4609259,-3.6912974,Madrid,Cuzco-Castillejos,False,20,rent,,,,1105.0,19.0,3.7142342E7,studio,Madrid,0,True,59.0,good,"Cuzco-Castillejos, Madrid","Estudio en paseo de la Castellana, 157",https://img3.idealista.com/blur/WEB_LISTING/0/id.pro.es.image.master/cc/b1/08/218648726.jpg,https://www.idealista.com/inmueble/37142342/,POINT(-3.6912974 40.4609259),768.3459450430034,-44,-336.65405495699656,0
barrio Bellas Vistas,2,es,flat,duplex,3900,Tetuán,True,A080,3,False,False,True,False,False,40.4517271,-3.7049846,Madrid,Bellas Vistas,False,17,rent,True,False,51.0,999.0,14.0,8.2494362E7,duplex,Madrid,2,False,69.0,good,"Bellas Vistas, Madrid",Dúplex,https://img3.idealista.com/blur/WEB_LISTING/0/id.pro.es.image.master/49/3c/16/574812833.jpg,https://www.idealista.com/inmueble/82494362/,POINT(-3.7049846 40.4517271),1270.4392795924596,21,271.43927959245957,1
"calle del General Díaz Porlier, Madrid",2,es,flat,,2640,Salamanca,True,,1,False,False,True,False,False,40.4278033,-3.6766182,Madrid,Lista,False,25,rent,,,,1900.0,17.0,8.2985828E7,flat,Madrid,3,False,111.0,good,"Lista, Madrid","Piso en calle del General Díaz Porlier, Madrid",https://img3.idealista.com/blur/WEB_LISTING/0/id.pro.es.image.master/fa/c4/f6/609771027.jpg,https://www.idealista.com/inmueble/82985828/,POINT(-3.6766182 40.4278033),1989.4949919840203,4,89.49499198402032,1
calle de Godella,1,es,flat,,8202,Villaverde,False,235-VI-000-030-687-145,0,False,False,False,False,False,40.3438294,-3.6887233,Madrid,San Cristóbal,False,13,rent,,,,460.0,7.0,8.166693E7,flat,Madrid,3,False,65.0,good,"San Cristóbal, Madrid",Piso en calle de Godella,https://img3.idealista.com/blur/WEB_LISTING/0/id.pro.es.image.master/91/09/9f/581928103.jpg,https://www.idealista.com/inmueble/81666930/,POINT(-3.6887233 40.3438294),629.7181008632145,27,169.71810086321454,1
barrio Quintana,1,es,flat,penthouse,5943,Ciudad Lineal,True,J 1581,3,False,False,True,False,False,40.4403953,-3.6412433,Madrid,Quintana,False,17,rent,True,False,150.0,1350.0,13.0,8.3276773E7,penthouse,Madrid,1,False,105.0,good,"Quintana, Madrid",Ático,https://img3.idealista.com/blur/WEB_LISTING/0/id.pro.es.image.master/83/6a/0e/614869174.jpg,https://www.idealista.com/inmueble/83276773/,POINT(-3.6412433 40.4403953),1166.9950326745497,-16,-183.00496732545025,0
barrio San Cristóbal,1,es,flat,,8422,Villaverde,False,VI-000-030-687-145,0,False,False,False,False,False,40.3419817,-3.6874372,Madrid,San Cristóbal,False,14,rent,,,,460.0,7.0,4.0286539E7,flat,Madrid,3,False,65.0,good,"San Cristóbal, Madrid",Piso,https://img3.idealista.com/blur/WEB_LISTING/0/id.pro.es.image.master/66/26/64/277312525.jpg,https://www.idealista.com/inmueble/40286539/,POINT(-3.6874372 40.3419817),629.7181008632145,27,169.71810086321454,1
"MARQUES DE LA ENSENADA, 16",1,es,flat,,1402,Centro,True,4055,11,False,False,True,False,False,40.4252675,-3.6920496,Madrid,Chueca-Justicia,False,8,rent,,,,1850.0,21.0,3.711716E7,flat,Madrid,1,True,90.0,good,"Chueca-Justicia, Madrid","Piso en MARQUES DE LA ENSENADA, 16",https://img3.idealista.com/blur/WEB_LISTING/0/id.pro.es.image.master/fb/a7/2e/598665736.jpg,https://www.idealista.com/inmueble/37117160/,POINT(-3.6920496 40.4252675),1623.2950787460406,-14,-226.70492125395936,0
"calle Julio Palacios, 37",2,es,flat,,7450,Fuencarral,True,,1,False,False,True,False,False,40.4833557,-3.6957104,Madrid,La Paz,False,4,rent,True,False,100.0,1150.0,9.0,8.2871849E7,flat,Madrid,3,True,134.0,good,"La Paz, Madrid","Piso en calle Julio Palacios, 37",https://img3.idealista.com/blur/WEB_LISTING/0/id.pro.es.image.master/f0/83/61/606759698.jpg,https://www.idealista.com/inmueble/82871849/,POINT(-3.6957104 40.4833557),1492.2308029496626,23,342.2308029496626,1
"avenida de la Ciudad de Barcelona, 95",1,es,flat,,3302,Retiro,True,,3,False,False,True,False,False,40.3999953,-3.6718689,Madrid,Adelfas,False,9,rent,,,,1075.0,32.0,3.9052551E7,flat,Madrid,1,True,34.0,good,"Adelfas, Madrid","Piso en avenida de la Ciudad de Barcelona, 95",https://img3.idealista.com/blur/WEB_LISTING/0/id.pro.es.image.master/71/29/6b/252948974.jpg,https://www.idealista.com/inmueble/39052551/,POINT(-3.6718689 40.3999953),710.4537960133982,-51,-364.54620398660177,0
"calle del Pelicano, 2",1,es,flat,,4085,Carabanchel,True,,3,False,False,False,False,False,40.3836404,-3.7253391,Madrid,Abrantes,False,5,rent,,,,725.0,10.0,4.0512115E7,flat,Madrid,3,True,70.0,good,"Abrantes, Madrid","Piso en calle del Pelicano, 2",https://img3.idealista.com/blur/WEB_LISTING/0/id.pro.es.image.master/17/6b/c6/618476829.jpg,https://www.idealista.com/inmueble/40512115/,POINT(-3.7253391 40.3836404),609.114647347573,-19,-115.88535265242695,0
"calle del Príncipe de Vergara, Madrid",2,es,flat,,2917,Salamanca,True,,7,False,False,True,False,False,40.4334886,-3.6777221,Madrid,Lista,False,27,rent,,,,1700.0,13.0,8.3433039E7,flat,Madrid,3,False,130.0,good,"Lista, Madrid","Piso en calle del Príncipe de Vergara, Madrid",https://img3.idealista.com/blur/WEB_LISTING/0/id.pro.es.image.master/cb/74/a7/617913962.jpg,https://www.idealista.com/inmueble/83433039/,POINT(-3.6777221 40.4334886),2104.7283185380934,19,404.7283185380934,1
"calle de Rafael Villa, Madrid",3,es,flat,,11819,Moncloa,True,W-02CVL3,1,False,False,True,True,False,40.4710131,-3.8241963,Madrid,El Plantío,False,27,rent,True,True,,1950.0,13.0,8.3330878E7,flat,Madrid,4,False,150.0,good,"El Plantío, Madrid","Piso en calle de Rafael Villa, Madrid",https://img3.idealista.com/blur/WEB_LISTING/0/id.pro.es.image.master/0c/04/03/615915574.jpg,https://www.idealista.com/inmueble/83330878/,POINT(-3.8241963 40.4710131),2044.629379179297,5,94.62937917929708,1
"calle de Ramiro II, Madrid",2,es,flat,,3151,Chamberí,True,W-02DYGK,5,False,False,True,True,False,40.4449861,-3.7031654,Madrid,Vallehermoso,False,25,rent,True,True,,1800.0,16.0,8.2985238E7,flat,Madrid,2,False,110.0,good,"Vallehermoso, Madrid","Piso en calle de Ramiro II, Madrid",https://img3.idealista.com/blur/WEB_LISTING/0/id.pro.es.image.master/5f/61/39/609216321.jpg,https://www.idealista.com/inmueble/82985238/,POINT(-3.7031654 40.4449861),1910.5132722265323,6,110.51327222653231,1
antonio Pérez,1,es,flat,,3378,Chamartín,True,03567,4,False,False,True,True,True,40.4421879,-3.6825166,Madrid,El Viso,False,24,rent,,,,1099.0,12.0,8.297192E7,flat,Madrid,2,False,90.0,good,"El Viso, Madrid",Piso en antonio Pérez,https://img3.idealista.com/blur/WEB_LISTING/0/id.pro.es.image.master/7a/10/a0/608937852.jpg,https://www.idealista.com/inmueble/82971920/,POINT(-3.6825166 40.4421879),1723.859491562711,36,624.8594915627109,1
Encinar de los Reyes,4,es,flat,penthouse,11372,Encinar de los Reyes,False,A4309I,2,False,False,True,False,False,40.5072046,-3.6416472,La Moraleja,,False,40,rent,True,True,,3400.0,17.0,2.8210681E7,penthouse,Madrid,5,False,200.0,good,"Encinar de los Reyes, La Moraleja",Ático,https://img3.idealista.com/blur/WEB_LISTING/0/id.pro.es.image.master/78/a9/7b/614593917.jpg,https://www.idealista.com/inmueble/28210681/,POINT(-3.6416472 40.5072046),2482.125897063023,-37,-917.8741029369771,0
"juan Sanchez, Madrid, 17",1,es,flat,,6638,Fuencarral,True,IdealJuanSánchez17,1,False,False,True,True,False,40.47523,-3.71937,Madrid,Peñagrande,False,13,rent,,,,1100.0,16.0,8.2614794E7,flat,Madrid,1,True,68.0,good,"Peñagrande, Madrid","Piso en juan Sanchez, Madrid, 17",https://img3.idealista.com/blur/WEB_LISTING/0/id.pro.es.image.master/88/af/8e/601323451.jpg,https://www.idealista.com/inmueble/82614794/,POINT(-3.71937 40.47523),915.9696319898745,-20,-184.03036801012547,0
Encinar de los Reyes,6,es,flat,penthouse,11635,Encinar de los Reyes,True,MOA01904,2,False,False,True,False,False,40.5104046,-3.6430472,La Moraleja,,False,22,rent,True,True,,3400.0,17.0,8.2518335E7,penthouse,Madrid,5,False,200.0,good,"Encinar de los Reyes, La Moraleja",Ático,https://img3.idealista.com/blur/WEB_LISTING/0/id.pro.es.image.master/50/7b/46/599345804.jpg,https://www.idealista.com/inmueble/82518335/,POINT(-3.6430472 40.5104046),3049.9975149807005,-11,-350.00248501929946,0
calle Cañizares,1,es,flat,,263,Centro,True,E9B7,2,False,False,True,True,False,40.4146302,-3.7025403,Madrid,Lavapiés-Embajadores,False,7,rent,,,,975.0,18.0,8.2824206E7,flat,Madrid,1,False,54.0,good,"Lavapiés-Embajadores, Madrid",Piso en calle Cañizares,https://img3.idealista.com/blur/WEB_LISTING/0/id.pro.es.image.master/18/d3/c1/605760025.jpg,https://www.idealista.com/inmueble/82824206/,POINT(-3.7025403 40.4146302),1121.535927849067,13,146.5359278490671,1
barrio Nueva España,2,es,chalet,,5242,Chamartín,False,BGA-00044,0,False,False,False,False,False,40.4589034,-3.6766726,Madrid,Nueva España,False,9,rent,True,True,,2800.0,22.0,8.2773386E7,chalet,Madrid,3,False,130.0,good,"Nueva España, Madrid",Chalet,https://img3.idealista.com/blur/WEB_LISTING/0/id.pro.es.image.master/83/16/7d/604651085.jpg,https://www.idealista.com/inmueble/82773386/,POINT(-3.6766726 40.4589034),1644.2692615843314,-70,-1155.7307384156686,0
calle Carnero,1,es,flat,,794,Centro,False,Alquiler Carnero,-1,False,False,False,False,False,40.4096359,-3.7059189,Madrid,Lavapiés-Embajadores,False,17,rent,,,,850.0,18.0,3.0517101E7,flat,Madrid,2,False,48.0,good,"Lavapiés-Embajadores, Madrid",Piso en calle Carnero,https://img3.idealista.com/blur/WEB_LISTING/0/id.pro.es.image.master/86/22/c2/101681767.jpg,https://www.idealista.com/inmueble/30517101/,POINT(-3.7059189 40.4096359),797.5100009606739,-7,-52.48999903932611,0
orense,1,es,flat,,3816,Tetuán,True,,6,False,False,True,False,False,40.4500179,-3.6935814,Madrid,Cuatro Caminos,False,8,rent,,,,1100.0,18.0,8.3245793E7,flat,Madrid,2,False,60.0,good,"Cuatro Caminos, Madrid",Piso en orense,https://img3.idealista.com/blur/WEB_LISTING/90/id.pro.es.image.master/c2/cc/ce/614303373.jpg,https://www.idealista.com/inmueble/83245793/,POINT(-3.6935814 40.4500179),983.0142527171215,-12,-116.98574728287849,0
calle Embalse de Valmayor,1,es,flat,,10571,Villa de Vallecas,True,VM5 - C/E.DE VALMAYOR,7,False,False,True,False,False,40.3620405,-3.6019815,Madrid,Ensanche de Vallecas - La Gavia,False,22,rent,True,True,,1100.0,11.0,8.2761875E7,flat,Madrid,3,False,103.0,good,"Ensanche de Vallecas - La Gavia, Madrid",Piso en calle Embalse de Valmayor,https://img3.idealista.com/blur/WEB_LISTING/0/id.pro.es.image.master/d2/29/de/604395113.jpg,https://www.idealista.com/inmueble/82761875/,POINT(-3.6019815 40.3620405),992.0357969345478,-11,-107.96420306545224,0
"calle Maragatería, Madrid",1,es,flat,,9486,Hortaleza,True,MARGAT1018,-1,False,False,False,False,False,40.484453,-3.6360906,Madrid,Valdebebas - Valdefuentes,False,21,rent,True,True,,1100.0,17.0,8.2828153E7,flat,Madrid,1,False,65.0,good,"Valdebebas - Valdefuentes, Madrid","Piso en calle Maragatería, Madrid",https://img3.idealista.com/blur/WEB_LISTING/0/id.pro.es.image.master/23/29/1c/605850906.jpg,https://www.idealista.com/inmueble/82828153/,POINT(-3.6360906 40.484453),797.1600318765813,-38,-302.83996812341866,0
"calle de Berlanga de Duero, 34",3,es,chalet,independantHouse,7091,Hortaleza,False,,0,False,False,False,False,False,40.4720764,-3.6626782,Madrid,Apóstol Santiago,False,31,rent,,,,1700.0,8.0,2.5385932E7,chalet,Madrid,3,True,220.0,good,"Apóstol Santiago, Madrid","Casa independiente en calle de Berlanga de Duero, 34",https://img3.idealista.com/blur/WEB_LISTING/0/id.pro.es.image.master/d9/24/80/29702383.jpg,https://www.idealista.com/inmueble/25385932/,POINT(-3.6626782 40.4720764),1875.6803964583755,9,175.68039645837553,1
Encinar de los Reyes,6,es,flat,duplex,11394,Encinar de los Reyes,False,W-02DVLH,0,False,False,True,False,False,40.5082046,-3.6436472,La Moraleja,,False,52,rent,True,True,,3400.0,16.0,8.260956E7,duplex,Madrid,4,False,212.0,good,"Encinar de los Reyes, La Moraleja",Dúplex,https://img3.idealista.com/blur/WEB_LISTING/0/id.pro.es.image.master/f2/89/d7/601225219.jpg,https://www.idealista.com/inmueble/82609560/,POINT(-3.6436472 40.5082046),2915.438134021116,-17,-484.5618659788838,0
calle Nanclares de Oca,2,es,flat,,11372,San Blas,False,ensa-lucas-nanclares2h,2,False,False,True,False,False,40.4445991,-3.5749066,Madrid,Rejas,False,52,rent,,,,920.0,10.0,3.4644164E7,flat,Madrid,2,False,94.0,good,"Rejas, Madrid",Piso en calle Nanclares de Oca,https://img3.idealista.com/blur/WEB_LISTING/0/id.pro.es.image.master/11/fd/7f/615545086.jpg,https://www.idealista.com/inmueble/34644164/,POINT(-3.5749066 40.4445991),929.7257854190798,1,9.725785419079784,1
blasco de Garay,2,es,flat,,2480,Chamberí,True,P277MTGR488,5,False,False,True,False,False,40.4384977,-3.710148,Madrid,Arapiles,False,15,rent,True,False,180.0,2650.0,20.0,8.1796188E7,flat,Madrid,3,False,133.0,good,"Arapiles, Madrid",Piso en blasco de Garay,https://img3.idealista.com/blur/WEB_LISTING/0/id.pro.es.image.master/16/8c/86/584666112.jpg,https://www.idealista.com/inmueble/81796188/,POINT(-3.710148 40.4384977),1893.1018523933262,-40,-756.8981476066738,0
"calle de Federico Moreno Torroba, 1",2,es,flat,,3341,Retiro,True,,1,False,False,True,False,False,40.4056255,-3.6674486,Madrid,Adelfas,False,9,rent,,,,1100.0,11.0,8.2158944E7,flat,Madrid,2,True,100.0,good,"Adelfas, Madrid","Piso en calle de Federico Moreno Torroba, 1",https://img3.idealista.com/blur/WEB_LISTING/0/id.pro.es.image.master/e6/20/dc/592546449.jpg,https://www.idealista.com/inmueble/82158944/,POINT(-3.6674486 40.4056255),1370.5843003873795,20,270.58430038737947,1
"calle de Ayala, Madrid",2,es,flat,,2014,Salamanca,False,,0,False,False,True,False,False,40.4257478,-3.683575,Madrid,Recoletos,False,15,rent,,,,1400.0,16.0,8.2395224E7,flat,Madrid,2,False,85.0,good,"Recoletos, Madrid","Piso en calle de Ayala, Madrid",https://img3.idealista.com/blur/WEB_LISTING/0/id.pro.es.image.master/21/ea/e7/597275265.jpg,https://www.idealista.com/inmueble/82395224/,POINT(-3.683575 40.4257478),1954.2715096771326,28,554.2715096771326,1
"plaza de Cristo Rey, 1",1,es,flat,studio,2693,Chamberí,True,,8,False,False,True,False,False,40.4387662,-3.7171696,Madrid,Gaztambide,False,0,rent,,,,725.0,18.0,8.2958534E7,studio,Madrid,0,True,40.0,good,"Gaztambide, Madrid","Estudio en plaza de Cristo Rey, 1",,https://www.idealista.com/inmueble/82958534/,POINT(-3.7171696 40.4387662),954.1998811000799,24,229.1998811000799,1
"calle de Serrano, Madrid",3,es,flat,,2737,Salamanca,True,M-46-00236,6,True,False,True,True,False,40.437542,-3.6870379,Madrid,Castellana,False,49,rent,,,,3100.0,23.0,8.1992199E7,flat,Madrid,3,False,136.0,good,"Castellana, Madrid","Piso en calle de Serrano, Madrid",https://img3.idealista.com/blur/WEB_LISTING/0/id.pro.es.image.master/0e/ea/5d/600479734.jpg,https://www.idealista.com/inmueble/81992199/,POINT(-3.6870379 40.437542),2965.517968095656,-5,-134.48203190434378,0
"calle de Serrano, Madrid",3,es,flat,,2709,Salamanca,True,MS-00030,6,False,False,True,True,True,40.437279,-3.6871115,Madrid,Castellana,False,32,rent,True,False,150.0,3100.0,23.0,8.2482795E7,flat,Madrid,3,False,136.0,good,"Castellana, Madrid","Piso en calle de Serrano, Madrid",https://img3.idealista.com/blur/WEB_LISTING/0/id.pro.es.image.master/5f/55/97/598675607.jpg,https://www.idealista.com/inmueble/82482795/,POINT(-3.6871115 40.437279),2745.056620258308,-13,-354.94337974169184,0
FRANCISCO CAMPOS,1,es,flat,,3408,Chamartín,True,3469-00877,1,False,False,True,False,False,40.4421719,-3.6818484,Madrid,El Viso,False,26,rent,True,False,115.0,950.0,16.0,8.2999202E7,flat,Madrid,1,False,60.0,good,"El Viso, Madrid",Piso en FRANCISCO CAMPOS,https://img3.idealista.com/blur/WEB_LISTING/0/id.pro.es.image.master/cd/b0/c3/609518074.jpg,https://www.idealista.com/inmueble/82999202/,POINT(-3.6818484 40.4421719),1470.8154835402938,35,520.8154835402938,1
virgen de los Peligros,1,es,flat,,592,Centro,True,03066,1,False,False,True,True,True,40.4198437,-3.6985481,Madrid,Huertas-Cortes,False,25,rent,,,,1200.0,14.0,8.2703303E7,flat,Madrid,1,False,85.0,good,"Huertas-Cortes, Madrid",Piso en virgen de los Peligros,https://img3.idealista.com/blur/WEB_LISTING/0/id.pro.es.image.master/2b/b4/db/603060564.jpg,https://www.idealista.com/inmueble/82703303/,POINT(-3.6985481 40.4198437),1505.2733056248035,20,305.27330562480347,1
"calle del Conde de Peñalver, Madrid",3,es,flat,,3065,Salamanca,True,W-02BRUV,3,False,False,True,True,False,40.430759,-3.673038,Madrid,Lista,False,34,rent,True,True,,2500.0,16.0,8.2484936E7,flat,Madrid,3,False,160.0,good,"Lista, Madrid","Piso en calle del Conde de Peñalver, Madrid",https://img3.idealista.com/blur/WEB_LISTING/0/id.pro.es.image.master/bb/0c/07/598719725.jpg,https://www.idealista.com/inmueble/82484936/,POINT(-3.673038 40.430759),2739.8193286850446,9,239.81932868504464,1
serrano,3,es,flat,,2592,Salamanca,True,AM1811037,6,False,False,True,True,True,40.436142,-3.6873379,Madrid,Castellana,False,10,rent,,,,3100.0,23.0,8.3215122E7,flat,Madrid,3,False,136.0,good,"Castellana, Madrid",Piso en serrano,https://img3.idealista.com/blur/WEB_LISTING/0/id.pro.es.image.master/cf/5a/23/613660195.jpg,https://www.idealista.com/inmueble/83215122/,POINT(-3.6873379 40.436142),2664.6167150440433,-16,-435.3832849559567,0
barrio Castellana,3,es,flat,,2934,Salamanca,True,AV-1018-SER-001,6,False,False,True,True,False,40.439342,-3.6864379,Madrid,Castellana,False,31,rent,,,,3100.0,23.0,8.26916E7,flat,Madrid,3,False,136.0,good,"Castellana, Madrid",Piso,https://img3.idealista.com/blur/WEB_LISTING/0/id.pro.es.image.master/f1/a8/3a/602787538.jpg,https://www.idealista.com/inmueble/82691600/,POINT(-3.6864379 40.439342),2713.5186697897648,-14,-386.4813302102352,0
calle Gerardo Cordón,1,es,flat,penthouse,4490,Ciudad Lineal,True,29581,3,False,False,True,True,False,40.428933,-3.6536203,Madrid,Ventas,False,15,rent,True,True,,950.0,17.0,8.2178521E7,penthouse,Madrid,1,False,55.0,good,"Ventas, Madrid",Ático en calle Gerardo Cordón,https://img3.idealista.com/blur/WEB_LISTING/0/id.pro.es.image.master/03/70/52/592964733.jpg,https://www.idealista.com/inmueble/82178521/,POINT(-3.6536203 40.428933),986.1793714123303,4,36.17937141233028,1
"calle Serrano, 93",3,es,flat,,2760,Salamanca,True,Serrano 6A,6,False,False,True,True,False,40.437542,-3.6865379,Madrid,Castellana,False,43,rent,True,False,220.0,3100.0,23.0,8.2377473E7,flat,Madrid,3,True,136.0,good,"Castellana, Madrid","Piso en calle Serrano, 93",https://img3.idealista.com/blur/WEB_LISTING/0/id.pro.es.image.master/87/2a/01/596919847.jpg,https://www.idealista.com/inmueble/82377473/,POINT(-3.6865379 40.437542),2793.9585750040296,-11,-306.0414249959704,0
"calle de Serrano, Madrid",3,es,flat,,2646,Salamanca,True,1476,6,False,False,True,True,True,40.435542,-3.6851379,Madrid,Castellana,False,28,rent,,,,3100.0,23.0,8.2390369E7,flat,Madrid,3,False,136.0,good,"Castellana, Madrid","Piso en calle de Serrano, Madrid",https://img3.idealista.com/blur/WEB_LISTING/0/id.pro.es.image.master/fe/b2/2b/597184283.jpg,https://www.idealista.com/inmueble/82390369/,POINT(-3.6851379 40.435542),2664.6167150440433,-16,-435.3832849559567,0
diego de león,1,es,flat,,2923,Salamanca,True,M-45-00067,1,False,False,True,True,False,40.4322508,-3.6763484,Madrid,Lista,False,30,rent,,,,1200.0,20.0,3.0990544E7,flat,Madrid,1,False,60.0,good,"Lista, Madrid",Piso en diego de león,https://img3.idealista.com/blur/WEB_LISTING/0/id.pro.es.image.master/b5/46/c5/613893464.jpg,https://www.idealista.com/inmueble/30990544/,POINT(-3.6763484 40.4322508),1523.203519191453,21,323.2035191914531,1
barrio Recoletos,2,es,flat,,1165,Salamanca,True,salp130,7,False,False,True,False,False,40.4218808,-3.6922332,Madrid,Recoletos,False,40,rent,True,True,,3000.0,21.0,8.254599E7,flat,Madrid,2,False,140.0,good,"Recoletos, Madrid",Piso,https://img3.idealista.com/blur/WEB_LISTING/0/id.pro.es.image.master/6d/42/ed/599918284.jpg,https://www.idealista.com/inmueble/82545990/,POINT(-3.6922332 40.4218808),2479.09409538296,-21,-520.90590461704,0
calle de Embajadores,3,es,flat,,868,Centro,True,EP-31272,2,False,False,False,True,True,40.4092717,-3.7075256,Madrid,Lavapiés-Embajadores,False,46,rent,,,,1800.0,9.0,8.2483188E7,flat,Madrid,2,False,200.0,good,"Lavapiés-Embajadores, Madrid",Piso en calle de Embajadores,https://img3.idealista.com/blur/WEB_LISTING/0/id.pro.es.image.master/9e/1b/7c/614525991.jpg,https://www.idealista.com/inmueble/82483188/,POINT(-3.7075256 40.4092717),2366.1772268776435,24,566.1772268776435,1
"calle Marqués Viudo de Pontejos, Madrid",1,es,flat,,249,Centro,True,03645,3,False,False,True,True,True,40.4166991,-3.7071086,Madrid,Sol,False,25,rent,,,,1500.0,17.0,8.2999985E7,flat,Madrid,2,False,90.0,good,"Sol, Madrid","Piso en calle Marqués Viudo de Pontejos, Madrid",https://img3.idealista.com/blur/WEB_LISTING/0/id.pro.es.image.master/26/37/eb/612688793.jpg,https://www.idealista.com/inmueble/82999985/,POINT(-3.7071086 40.4166991),1651.0520303948872,9,151.0520303948872,1
"calle de Serrano, Madrid",3,es,flat,,2844,Salamanca,True,M319,6,False,False,True,False,False,40.438442,-3.6865379,Madrid,Castellana,False,34,rent,,,,3100.0,23.0,8.2544926E7,flat,Madrid,3,False,136.0,good,"Castellana, Madrid","Piso en calle de Serrano, Madrid",https://img3.idealista.com/blur/WEB_LISTING/0/id.pro.es.image.master/6b/f5/9a/599903417.jpg,https://www.idealista.com/inmueble/82544926/,POINT(-3.6865379 40.438442),2557.7686805322965,-21,-542.2313194677035,0
barrio Castellana,2,es,flat,,2659,Salamanca,True,AM1807024,2,False,False,True,True,True,40.437042,-3.6877379,Madrid,Castellana,False,14,rent,,,,2200.0,24.0,8.1719045E7,flat,Madrid,3,False,91.0,good,"Castellana, Madrid",Piso,https://img3.idealista.com/blur/WEB_LISTING/0/id.pro.es.image.master/b9/6d/3b/583008961.jpg,https://www.idealista.com/inmueble/81719045/,POINT(-3.6877379 40.437042),2172.7173820137473,-1,-27.282617986252717,0
"calle Marcelo Usera, Madrid",2,es,flat,,3642,Usera,True,Usera,1,False,False,False,True,False,40.3839889,-3.7074275,Madrid,Pradolongo,False,81,rent,,,,1200.0,14.0,8.3287884E7,flat,Madrid,3,False,88.0,good,"Pradolongo, Madrid","Piso en calle Marcelo Usera, Madrid",https://img3.idealista.com/blur/WEB_LISTING/0/id.pro.es.image.master/33/02/2c/615045808.jpg,https://www.idealista.com/inmueble/83287884/,POINT(-3.7074275 40.3839889),1263.633731810013,5,63.63373181001293,1
calle Villavieja,2,es,flat,,3768,Latina,False,RP34201848196,6,False,False,True,False,False,40.4093513,-3.7476264,Madrid,Lucero,False,12,rent,,,,1200.0,12.0,8.2760139E7,flat,Madrid,3,False,103.0,good,"Lucero, Madrid",Piso en calle Villavieja,https://img3.idealista.com/blur/WEB_LISTING/0/id.pro.es.image.master/b5/ab/57/604337324.jpg,https://www.idealista.com/inmueble/82760139/,POINT(-3.7476264 40.4093513),1104.0465512657736,-9,-95.95344873422641,0
sebastian herrera,1,es,flat,,1675,Arganzuela,False,GP 1183,3,False,False,True,False,False,40.402452,-3.697556,Madrid,Palos de Moguer,False,44,rent,,,,1200.0,19.0,8.2495352E7,flat,Madrid,2,False,62.0,good,"Palos de Moguer, Madrid",Piso en sebastian herrera,https://img3.idealista.com/blur/WEB_LISTING/0/id.pro.es.image.master/ce/6c/a1/598946172.jpg,https://www.idealista.com/inmueble/82495352/,POINT(-3.697556 40.402452),861.4541933275527,-39,-338.54580667244727,0
barrio Lista,3,es,flat,,3389,Salamanca,True,,3,False,False,True,False,False,40.4309304,-3.6687821,Madrid,Lista,False,25,rent,True,True,,2500.0,10.0,8.3054549E7,flat,Madrid,4,False,250.0,good,"Lista, Madrid",Piso,https://img3.idealista.com/blur/WEB_LISTING/0/id.pro.es.image.master/26/64/b7/610666234.jpg,https://www.idealista.com/inmueble/83054549/,POINT(-3.6687821 40.4309304),3160.9832795044604,21,660.9832795044604,1
villanueva,2,es,flat,,1517,Salamanca,True,,7,False,False,True,False,False,40.4239808,-3.6890332,Madrid,Recoletos,False,29,rent,True,False,200.0,3000.0,21.0,8.2821809E7,flat,Madrid,2,False,143.0,good,"Recoletos, Madrid",Piso en villanueva,https://img3.idealista.com/blur/WEB_LISTING/0/id.pro.es.image.master/29/23/64/605712152.jpg,https://www.idealista.com/inmueble/82821809/,POINT(-3.6890332 40.4239808),2496.7010619137077,-20,-503.2989380862923,0
calle del General Pardiñas,1,es,flat,,2511,Salamanca,False,83,2,False,False,True,False,True,40.4265019,-3.6774645,Madrid,Goya,False,40,rent,,,,950.0,24.0,8.1584735E7,flat,Madrid,1,False,40.0,good,"Goya, Madrid",Piso en calle del General Pardiñas,https://img3.idealista.com/blur/WEB_LISTING/0/id.pro.es.image.master/82/7a/c1/579690197.jpg,https://www.idealista.com/inmueble/81584735/,POINT(-3.6774645 40.4265019),1059.7028821414692,10,109.70288214146922,1
"calle de Ladera de los Almendros, 12",2,es,flat,,7003,Vicálvaro,False,,4,False,False,True,False,False,40.402188,-3.6236569,Madrid,Valdebernardo - Valderribas,False,33,rent,True,True,,950.0,11.0,8.2896557E7,flat,Madrid,3,True,89.0,good,"Valdebernardo - Valderribas, Madrid","Piso en calle de Ladera de los Almendros, 12",https://img3.idealista.com/blur/WEB_LISTING/0/id.pro.es.image.master/84/c1/de/607165509.jpg,https://www.idealista.com/inmueble/82896557/,POINT(-3.6236569 40.402188),832.267677864261,-14,-117.73232213573897,0
calle Marqués Viudo de Pontejos,1,es,flat,,217,Centro,True,JSC-A-3355,3,False,False,True,False,False,40.4146991,-3.7043086,Madrid,Sol,False,22,rent,,,,1500.0,17.0,8.3128414E7,flat,Madrid,2,False,90.0,good,"Sol, Madrid",Piso en calle Marqués Viudo de Pontejos,https://img3.idealista.com/blur/WEB_LISTING/0/id.pro.es.image.master/0e/74/03/612038400.jpg,https://www.idealista.com/inmueble/83128414/,POINT(-3.7043086 40.4146991),1544.2039958831404,3,44.20399588314035,1
"averroes, 5",3,es,chalet,independantHouse,2848,Retiro,False,3248-13767,0,False,False,False,False,False,40.4083528,-3.6723263,Madrid,Niño Jesús,False,38,rent,,,,3000.0,11.0,8.196477E7,chalet,Madrid,4,True,270.0,good,"Niño Jesús, Madrid","Casa independiente en averroes, 5",https://img3.idealista.com/blur/WEB_LISTING/0/id.pro.es.image.master/28/ac/8c/588634350.jpg,https://www.idealista.com/inmueble/81964770/,POINT(-3.6723263 40.4083528),2777.126733873224,-8,-222.8732661267759,0
bausa,1,es,flat,,6550,Ciudad Lineal,True,A946,11,False,False,True,False,False,40.4695523,-3.6700856,Madrid,Costillares,False,14,rent,True,True,,990.0,21.0,8.3172481E7,flat,Madrid,1,False,47.0,good,"Costillares, Madrid",Piso en bausa,https://img3.idealista.com/blur/WEB_LISTING/0/id.pro.es.image.master/ee/a1/e4/612719402.jpg,https://www.idealista.com/inmueble/83172481/,POINT(-3.6700856 40.4695523),747.6137507359488,-32,-242.38624926405123,0
serrano,3,es,flat,,2928,Salamanca,True,P300,6,False,False,True,False,False,40.439542,-3.6870379,Madrid,Castellana,False,24,rent,True,False,200.0,3100.0,22.0,8.3030375E7,flat,Madrid,3,False,140.0,good,"Castellana, Madrid",Piso en serrano,https://img3.idealista.com/blur/WEB_LISTING/0/id.pro.es.image.master/f1/95/d7/610148027.jpg,https://www.idealista.com/inmueble/83030375/,POINT(-3.6870379 40.439542),2661.684541120891,-16,-438.315458879109,0
"avenida del Doctor Federico Rubio y Galí, Madrid, 1",1,es,flat,,3495,Tetuán,True,,4,False,False,True,False,False,40.4479265,-3.7084481,Madrid,Bellas Vistas,False,25,rent,,,,750.0,18.0,8.2610005E7,flat,Madrid,1,True,42.0,good,"Bellas Vistas, Madrid","Piso en avenida del Doctor Federico Rubio y Galí, Madrid, 1",https://img3.idealista.com/blur/WEB_LISTING/0/id.pro.es.image.master/eb/6f/f1/601232381.jpg,https://www.idealista.com/inmueble/82610005/,POINT(-3.7084481 40.4479265),718.070927065012,-4,-31.92907293498797,0
velazquez,3,es,flat,,2108,Salamanca,False,2361,3,False,False,True,False,False,40.4262002,-3.6826326,Madrid,Recoletos,False,20,rent,,,,3023.0,20.0,3.9806907E7,flat,Madrid,3,False,148.0,good,"Recoletos, Madrid",Piso en velazquez,https://img3.idealista.com/blur/WEB_LISTING/0/id.pro.es.image.master/98/b7/a6/266901958.jpg,https://www.idealista.com/inmueble/39806907/,POINT(-3.6826326 40.4262002),2599.897162958704,-16,-423.10283704129597,0
Encinar de los Reyes,4,es,flat,duplex,11566,Encinar de los Reyes,True,A1025,2,False,False,True,False,False,40.5098989,-3.6435403,La Moraleja,,False,29,rent,True,True,,3400.0,17.0,8.2498358E7,duplex,Madrid,4,False,202.0,good,"Encinar de los Reyes, La Moraleja",Dúplex,https://img3.idealista.com/blur/WEB_LISTING/0/id.pro.es.image.master/68/ab/7e/599002351.jpg,https://www.idealista.com/inmueble/82498358/,POINT(-3.6435403 40.5098989),2524.608138804651,-35,-875.3918611953491,0
paz,3,es,flat,,148,Centro,True,,1,False,False,True,False,False,40.4156651,-3.7053353,Madrid,Sol,False,37,rent,,,,1900.0,10.0,8.2626963E7,flat,Madrid,3,False,190.0,good,"Sol, Madrid",Piso en paz,https://img3.idealista.com/blur/WEB_LISTING/0/id.pro.es.image.master/0c/c5/27/601568190.jpg,https://www.idealista.com/inmueble/82626963/,POINT(-3.7053353 40.4156651),2629.1932636573397,28,729.1932636573397,1
barrio Palacio,3,es,flat,,966,Centro,True,plc003JM,1,False,False,True,False,False,40.4209111,-3.7141181,Madrid,Palacio,False,35,rent,True,False,200.0,3000.0,13.0,3.2407431E7,flat,Madrid,3,False,240.0,good,"Palacio, Madrid",Piso,https://img3.idealista.com/blur/WEB_LISTING/0/id.pro.es.image.master/e6/d3/d6/585235074.jpg,https://www.idealista.com/inmueble/32407431/,POINT(-3.7141181 40.4209111),2778.633010031908,-8,-221.36698996809218,0
"calle del Conde de Serrallo, Madrid, 1",1,es,flat,studio,5568,Tetuán,True,,2,False,False,True,False,False,40.4658983,-3.6921473,Madrid,Ventilla-Almenara,False,10,rent,True,False,75.0,670.0,19.0,8.1911333E7,studio,Madrid,0,True,35.0,good,"Ventilla-Almenara, Madrid","Estudio en calle del Conde de Serrallo, Madrid, 1",https://img3.idealista.com/blur/WEB_LISTING/0/id.pro.es.image.master/d1/4e/df/587527180.jpg,https://www.idealista.com/inmueble/81911333/,POINT(-3.6921473 40.4658983),752.1724540164153,11,82.17245401641526,1
barrio Sol,1,es,flat,,122,Centro,True,MAYA288,3,False,False,True,False,False,40.4166991,-3.7056086,Madrid,Sol,False,17,rent,,,,1500.0,17.0,8.3052202E7,flat,Madrid,2,False,90.0,good,"Sol, Madrid",Piso,https://img3.idealista.com/blur/WEB_LISTING/0/id.pro.es.image.master/f6/42/56/615873071.jpg,https://www.idealista.com/inmueble/83052202/,POINT(-3.7056086 40.4166991),1544.2039958831404,3,44.20399588314035,1
"calle Julia Balenchana, 10",1,es,flat,,6262,Ciudad Lineal,True,,1,False,False,True,False,False,40.4633479,-3.6627687,Madrid,Atalaya,False,18,rent,True,True,,1500.0,21.0,8.3078101E7,flat,Madrid,1,True,70.0,good,"Atalaya, Madrid","Piso en calle Julia Balenchana, 10",https://img3.idealista.com/blur/WEB_LISTING/0/id.pro.es.image.master/77/d8/94/616666064.jpg,https://www.idealista.com/inmueble/83078101/,POINT(-3.6627687 40.4633479),1024.9387499541963,-46,-475.0612500458037,0
"calle Alcalde Álvarez de Villaamil, 2",2,es,flat,penthouse,9270,Hortaleza,True,,5,False,False,True,False,False,40.4894612,-3.6507644,Madrid,Sanchinarro,False,14,rent,True,True,,1500.0,11.0,2025616.0,penthouse,Madrid,3,True,140.0,good,"Sanchinarro, Madrid","Ático en calle Alcalde Álvarez de Villaamil, 2",https://img3.idealista.com/blur/WEB_LISTING/0/id.pro.es.image.master/40/ec/7e/363465.jpg,https://www.idealista.com/inmueble/2025616/,POINT(-3.6507644 40.4894612),1649.3307848143393,9,149.33078481433927,1
"calle de las Mártires Concepcionistas, 18",3,es,flat,,3180,Salamanca,True,,3,False,False,True,False,False,40.4293304,-3.6704821,Madrid,Lista,False,14,rent,True,True,,2500.0,10.0,8.3060815E7,flat,Madrid,4,True,240.0,good,"Lista, Madrid","Piso en calle de las Mártires Concepcionistas, 18",https://img3.idealista.com/blur/WEB_LISTING/0/id.pro.es.image.master/4e/f4/e2/610778854.jpg,https://www.idealista.com/inmueble/83060815/,POINT(-3.6704821 40.4293304),3102.293391068635,19,602.2933910686352,1
calle y Escalinata de Matilde Landa,1,es,flat,,6406,Tetuán,False,A2-MAIKE-132,3,False,False,True,False,False,40.4736492,-3.6930931,Madrid,Ventilla-Almenara,False,14,rent,,,,1120.0,17.0,8.2995746E7,flat,Madrid,2,False,65.0,good,"Ventilla-Almenara, Madrid",Piso en calle y Escalinata de Matilde Landa,https://img3.idealista.com/blur/WEB_LISTING/0/id.pro.es.image.master/c8/8a/06/615550202.jpg,https://www.idealista.com/inmueble/82995746/,POINT(-3.6930931 40.4736492),889.255198261855,-26,-230.74480173814504,0
"calle Santiago Bernabéu, Madrid",2,es,flat,,4147,Chamartín,True,,6,False,False,True,False,False,40.4520756,-3.6887909,Madrid,El Viso,False,0,rent,,,,1200.0,15.0,8.2809879E7,flat,Madrid,2,False,80.0,good,"El Viso, Madrid","Piso en calle Santiago Bernabéu, Madrid",,https://www.idealista.com/inmueble/82809879/,POINT(-3.6887909 40.4520756),1784.8755575088871,33,584.8755575088871,1
"calle de Embajadores, 42",1,es,flat,,900,Centro,False,,2,False,False,False,False,False,40.4085859,-3.7051171,Madrid,Lavapiés-Embajadores,False,14,rent,,,,600.0,17.0,8.2967324E7,flat,Madrid,1,True,35.0,good,"Lavapiés-Embajadores, Madrid","Piso en calle de Embajadores, 42",https://img3.idealista.com/blur/WEB_LISTING/0/id.pro.es.image.master/c2/7a/aa/615626096.jpg,https://www.idealista.com/inmueble/82967324/,POINT(-3.7051171 40.4085859),674.3694711026463,11,74.36947110264634,1
barrio Abrantes,1,es,flat,,4561,Carabanchel,False,VI-000-030-686-682,0,False,False,True,False,False,40.3808441,-3.7304522,Madrid,Abrantes,False,15,rent,,,,635.0,8.0,3.9855963E7,flat,Madrid,3,False,75.0,good,"Abrantes, Madrid",Piso,https://img3.idealista.com/blur/WEB_LISTING/0/id.pro.es.image.master/95/84/0b/268006028.jpg,https://www.idealista.com/inmueble/39855963/,POINT(-3.7304522 40.3808441),582.0133368016641,-9,-52.98666319833592,0
"paseo de la Castellana, Madrid",4,es,flat,,5144,Tetuán,True,,6,False,False,True,False,False,40.4614418,-3.6888925,Madrid,Cuzco-Castillejos,False,24,rent,True,True,,3500.0,12.0,8.3370372E7,flat,Madrid,6,False,288.0,good,"Cuzco-Castillejos, Madrid","Piso en paseo de la Castellana, Madrid",https://img3.idealista.com/blur/WEB_LISTING/0/id.pro.es.image.master/ab/3d/aa/616684039.jpg,https://www.idealista.com/inmueble/83370372/,POINT(-3.6888925 40.4614418),3273.0050408525376,-7,-226.9949591474624,0
"calle de Almagro, 30",1,es,flat,,1804,Chamberí,True,,-1,False,False,True,False,False,40.4302528,-3.692527,Madrid,Almagro,False,28,rent,,,,1000.0,20.0,8.2688392E7,flat,Madrid,2,True,50.0,good,"Almagro, Madrid","Piso en calle de Almagro, 30",https://img3.idealista.com/blur/WEB_LISTING/0/id.pro.es.image.master/08/7f/e4/602719315.jpg,https://www.idealista.com/inmueble/82688392/,POINT(-3.692527 40.4302528),1485.9656191721833,33,485.9656191721833,1
"ronda de Atocha, Madrid, 12",2,es,flat,,1259,Centro,False,AR1860i,4,False,False,True,False,False,40.4069042,-3.6965923,Madrid,Lavapiés-Embajadores,False,46,rent,,,,1300.0,16.0,8.3341149E7,flat,Madrid,2,True,81.0,good,"Lavapiés-Embajadores, Madrid","Piso en ronda de Atocha, Madrid, 12",https://img3.idealista.com/blur/WEB_LISTING/0/id.pro.es.image.master/15/3e/ae/616147861.jpg,https://www.idealista.com/inmueble/83341149/,POINT(-3.6965923 40.4069042),1282.2622379356806,-1,-17.73776206431944,0
calle de Juan Bravo,2,es,flat,,2453,Salamanca,False,RP164201848789,6,False,False,True,False,False,40.4336925,-3.6857337,Madrid,Castellana,False,10,rent,,,,1300.0,16.0,8.2940392E7,flat,Madrid,2,False,79.0,good,"Castellana, Madrid",Piso en calle de Juan Bravo,https://img3.idealista.com/blur/WEB_LISTING/0/id.pro.es.image.master/b2/82/87/608447868.jpg,https://www.idealista.com/inmueble/82940392/,POINT(-3.6857337 40.4336925),1831.9728970943718,29,531.9728970943718,1
calle de Jorge Juan,1,es,flat,,2814,Salamanca,False,1101,1,False,False,True,False,False,40.422989,-3.6719757,Madrid,Goya,False,26,rent,,,,1290.0,25.0,3.765283E7,flat,Madrid,1,False,52.0,good,"Goya, Madrid",Piso en calle de Jorge Juan,https://img3.idealista.com/blur/WEB_LISTING/0/id.pro.es.image.master/33/26/7c/603550097.jpg,https://www.idealista.com/inmueble/37652830/,POINT(-3.6719757 40.422989),1178.412279922513,-9,-111.58772007748689,0
avenida de Burgos,3,es,flat,,6598,Chamartín,True,MADR12803,1,False,False,True,False,False,40.4724023,-3.6774186,Madrid,Castilla,False,45,rent,True,True,,3300.0,18.0,8.217235E7,flat,Madrid,3,False,180.0,good,"Castilla, Madrid",Piso en avenida de Burgos,https://img3.idealista.com/blur/WEB_LISTING/0/id.pro.es.image.master/de/85/5c/592839234.jpg,https://www.idealista.com/inmueble/82172350/,POINT(-3.6774186 40.4724023),2435.1456521918276,-36,-864.8543478081724,0
barrio Huertas-Cortes,2,es,flat,,1309,Centro,True,A18000,1,False,False,True,False,False,40.4092526,-3.6921327,Madrid,Huertas-Cortes,False,38,rent,,,,2000.0,11.0,8.3348998E7,flat,Madrid,4,False,180.0,good,"Huertas-Cortes, Madrid",Piso,https://img3.idealista.com/blur/WEB_LISTING/0/id.pro.es.image.master/e1/5e/4d/616287734.jpg,https://www.idealista.com/inmueble/83348998/,POINT(-3.6921327 40.4092526),2327.407186435181,14,327.40718643518085,1
barrio Huertas-Cortes,2,es,flat,,1241,Centro,True,A18000,1,False,False,True,False,False,40.4100526,-3.6923327,Madrid,Huertas-Cortes,False,32,rent,,,,2000.0,11.0,8.3414967E7,flat,Madrid,4,False,180.0,good,"Huertas-Cortes, Madrid",Piso,https://img3.idealista.com/blur/WEB_LISTING/0/id.pro.es.image.master/b9/cc/04/617552053.jpg,https://www.idealista.com/inmueble/83414967/,POINT(-3.6923327 40.4100526),2327.407186435181,14,327.40718643518085,1
barrio Castellana,3,es,flat,,2153,Salamanca,True,VAP-0025,5,False,False,True,False,False,40.4322329,-3.6890442,Madrid,Castellana,False,25,rent,,,,4000.0,13.0,8.2583148E7,flat,Madrid,4,False,300.0,good,"Castellana, Madrid",Piso,https://img3.idealista.com/blur/WEB_LISTING/0/id.pro.es.image.master/5a/54/59/600674669.jpg,https://www.idealista.com/inmueble/82583148/,POINT(-3.6890442 40.4322329),3568.3673719466187,-12,-431.63262805338127,0
"calle de la Princesa, Madrid, 15",1,es,flat,,1273,Moncloa,True,,5,False,False,True,False,False,40.4258589,-3.7131088,Madrid,Argüelles,False,25,rent,,,,1400.0,14.0,8.3215436E7,flat,Madrid,2,True,101.0,good,"Argüelles, Madrid","Piso en calle de la Princesa, Madrid, 15",https://img3.idealista.com/blur/WEB_LISTING/0/id.pro.es.image.master/4a/e9/f2/613666323.jpg,https://www.idealista.com/inmueble/83215436/,POINT(-3.7131088 40.4258589),1505.8328200890896,7,105.83282008908964,1
"calle Lorenza Correa, 5",2,es,flat,duplex,4086,Tetuán,True,,-1,False,False,False,True,False,40.4533664,-3.7063986,Madrid,Bellas Vistas,False,19,rent,,,,1400.0,13.0,8.3219963E7,duplex,Madrid,2,True,109.0,good,"Bellas Vistas, Madrid","Dúplex en calle Lorenza Correa, 5",https://img3.idealista.com/blur/WEB_LISTING/0/id.pro.es.image.master/0a/09/8d/613789592.jpg,https://www.idealista.com/inmueble/83219963/,POINT(-3.7063986 40.4533664),1515.3668780482606,8,115.36687804826056,1
arzobispo Morcillo,2,es,flat,,7487,Fuencarral,True,2275,1,False,False,True,False,False,40.4838322,-3.6979318,Madrid,La Paz,False,13,rent,True,True,,1400.0,11.0,8.3013855E7,flat,Madrid,2,False,130.0,good,"La Paz, Madrid",Piso en arzobispo Morcillo,https://img3.idealista.com/blur/WEB_LISTING/0/id.pro.es.image.master/4c/e3/c0/609828429.jpg,https://www.idealista.com/inmueble/83013855/,POINT(-3.6979318 40.4838322),1420.0499034208751,1,20.049903420875125,1
calle de Bordadores,2,es,flat,,327,Centro,True,2005211405,2,False,False,True,False,False,40.4163389,-3.7080111,Madrid,Sol,False,14,rent,,,,3500.0,18.0,8.2218639E7,flat,Madrid,4,False,194.0,good,"Sol, Madrid",Piso en calle de Bordadores,https://img3.idealista.com/blur/WEB_LISTING/0/id.pro.es.image.master/b0/2a/b9/599594823.jpg,https://www.idealista.com/inmueble/82218639/,POINT(-3.7080111 40.4163389),2476.681443555382,-41,-1023.318556444618,0
"calle del Divino Vallés, 6",1,es,flat,,2378,Arganzuela,True,,3,False,False,True,True,False,40.3963924,-3.6951707,Madrid,Delicias,False,8,rent,,,,1050.0,16.0,8.2298418E7,flat,Madrid,3,True,65.0,good,"Delicias, Madrid","Piso en calle del Divino Vallés, 6",https://img3.idealista.com/blur/WEB_LISTING/0/id.pro.es.image.master/06/5e/27/595250038.jpg,https://www.idealista.com/inmueble/82298418/,POINT(-3.6951707 40.3963924),1014.6732313862226,-3,-35.3267686137774,0
"calle de Bravo Murillo, Madrid, 9",1,es,flat,studio,2001,Chamberí,False,Bravo Murillo,-1,False,False,False,False,False,40.4346545,-3.7046841,Madrid,Arapiles,False,8,rent,,,,700.0,19.0,8.2045498E7,studio,Madrid,0,True,37.0,good,"Arapiles, Madrid","Estudio en calle de Bravo Murillo, Madrid, 9",https://img3.idealista.com/blur/WEB_LISTING/0/id.pro.es.image.master/36/1d/3b/617247237.jpg,https://www.idealista.com/inmueble/82045498/,POINT(-3.7046841 40.4346545),633.514819789966,-10,-66.48518021003395,0
"calle de la Paloma, Madrid",1,es,flat,,832,Centro,False,Paloma,1,False,False,False,False,False,40.4108012,-3.7102922,Madrid,Palacio,False,12,rent,,,,995.0,11.0,8.2958692E7,flat,Madrid,2,False,93.0,good,"Palacio, Madrid","Piso en calle de la Paloma, Madrid",https://img3.idealista.com/blur/WEB_LISTING/0/id.pro.es.image.master/4c/26/bd/608683022.jpg,https://www.idealista.com/inmueble/82958692/,POINT(-3.7102922 40.4108012),1156.2148357588455,14,161.21483575884554,1
"calle Escalinata, 19",2,es,flat,,462,Centro,True,,3,False,False,False,False,False,40.4175683,-3.709495,Madrid,Palacio,False,22,rent,,,,1950.0,17.0,1886119.0,flat,Madrid,3,True,118.0,good,"Palacio, Madrid","Piso en calle Escalinata, 19",https://img3.idealista.com/blur/WEB_LISTING/0/id.pro.es.image.master/ee/d5/b4/83449298.jpg,https://www.idealista.com/inmueble/1886119/,POINT(-3.709495 40.4175683),1695.4438223774657,-15,-254.55617762253428,0
barrio Ciudad Universitaria,2,es,flat,,3527,Moncloa,True,AF005,1,False,False,True,False,False,40.4475416,-3.7136565,Madrid,Ciudad Universitaria,False,20,rent,,,,1300.0,16.0,8.3269557E7,flat,Madrid,2,False,80.0,good,"Ciudad Universitaria, Madrid",Piso,https://img3.idealista.com/blur/WEB_LISTING/0/id.pro.es.image.master/ba/54/3d/618197402.jpg,https://www.idealista.com/inmueble/83269557/,POINT(-3.7136565 40.4475416),1241.5730454521956,-5,-58.42695454780437,0
"calle del Bronce, 23",2,es,flat,,3353,Arganzuela,True,,6,False,False,True,False,False,40.3890517,-3.6882166,Madrid,Legazpi,False,16,rent,True,False,100.0,1400.0,15.0,8.2824526E7,flat,Madrid,3,True,94.0,good,"Legazpi, Madrid","Piso en calle del Bronce, 23",https://img3.idealista.com/blur/WEB_LISTING/0/id.pro.es.image.master/2f/11/4b/605768633.jpg,https://www.idealista.com/inmueble/82824526/,POINT(-3.6882166 40.3890517),1447.1211217036537,3,47.12112170365367,1
"ronda de Atocha, 15",1,es,flat,,1312,Arganzuela,True,,3,False,False,True,False,False,40.4068126,-3.6956035,Madrid,Palos de Moguer,False,13,rent,True,True,,1300.0,21.0,8.247976E7,flat,Madrid,1,True,62.0,good,"Palos de Moguer, Madrid","Piso en ronda de Atocha, 15",https://img3.idealista.com/blur/WEB_LISTING/0/id.pro.es.image.master/43/a7/0e/598622300.jpg,https://www.idealista.com/inmueble/82479760/,POINT(-3.6956035 40.4068126),1010.4344868682123,-29,-289.5655131317877,0
barrio Recoletos,2,es,flat,penthouse,2079,Salamanca,True,7777,7,False,False,True,False,False,40.4240558,-3.6815995,Madrid,Recoletos,False,12,rent,,,,3300.0,15.0,8.2460792E7,penthouse,Madrid,3,False,220.0,good,"Recoletos, Madrid",Ático,https://img3.idealista.com/blur/WEB_LISTING/0/id.pro.es.image.master/d7/06/6b/598246270.jpg,https://www.idealista.com/inmueble/82460792/,POINT(-3.6815995 40.4240558),2994.742450832937,-10,-305.2575491670632,0
barrio Castellana,3,es,flat,penthouse,1936,Salamanca,True,P050M152,5,False,False,True,False,False,40.4292949,-3.6884279,Madrid,Castellana,False,28,rent,True,True,,4000.0,13.0,3.9265874E7,penthouse,Madrid,4,False,314.0,good,"Castellana, Madrid",Ático,https://img3.idealista.com/blur/WEB_LISTING/0/id.pro.es.image.master/17/2f/80/256817148.jpg,https://www.idealista.com/inmueble/39265874/,POINT(-3.6884279 40.4292949),3808.837329994222,-5,-191.16267000577818,0
barrio Chueca-Justicia,3,es,flat,,1450,Centro,True,,1,False,False,True,False,False,40.4288515,-3.6980745,Madrid,Chueca-Justicia,False,24,rent,True,False,100.0,3900.0,29.0,8.2422122E7,flat,Madrid,3,False,134.0,good,"Chueca-Justicia, Madrid",Piso,https://img3.idealista.com/blur/WEB_LISTING/0/id.pro.es.image.master/4f/eb/07/597791095.jpg,https://www.idealista.com/inmueble/82422122/,POINT(-3.6980745 40.4288515),2503.802435947002,-56,-1396.1975640529981,0
castilla,1,es,flat,,4041,Tetuán,True,,4,False,False,True,False,False,40.4529777,-3.7060312,Madrid,Bellas Vistas,False,22,rent,,,,1000.0,17.0,8.2721457E7,flat,Madrid,2,False,60.0,good,"Bellas Vistas, Madrid",Piso en castilla,https://img3.idealista.com/blur/WEB_LISTING/90/id.pro.es.image.master/62/c9/02/605632000.jpg,https://www.idealista.com/inmueble/82721457/,POINT(-3.7060312 40.4529777),872.4176704039546,-15,-127.58232959604538,0
"calle del General Díaz Porlier, 36",1,es,flat,,2645,Salamanca,False,,3,False,False,True,True,False,40.4282023,-3.6768381,Madrid,Goya,False,14,rent,,,,1200.0,19.0,8.288164E7,flat,Madrid,2,True,63.0,good,"Goya, Madrid","Piso en calle del General Díaz Porlier, 36",https://img3.idealista.com/blur/WEB_LISTING/0/id.pro.es.image.master/a2/45/01/606976235.jpg,https://www.idealista.com/inmueble/82881640/,POINT(-3.6768381 40.4282023),1448.666936789181,17,248.6669367891809,1
"calle de Vallehermoso, Madrid",1,es,flat,,1867,Chamberí,False,,-1,False,False,True,False,False,40.433351,-3.7065789,Madrid,Arapiles,False,4,rent,,,,1000.0,16.0,8.324431E7,flat,Madrid,2,False,63.0,good,"Arapiles, Madrid","Piso en calle de Vallehermoso, Madrid",https://img3.idealista.com/blur/WEB_LISTING/0/id.pro.es.image.master/ed/a2/26/614277120.jpg,https://www.idealista.com/inmueble/83244310/,POINT(-3.7065789 40.433351),1006.8467702485577,1,6.846770248557732,1
"calle Caballero de los Espejos, 5",2,es,chalet,independantHouse,10098,Fuencarral,False,,0,False,False,False,False,False,40.5065853,-3.6874911,Madrid,Tres Olivos - Valverde,False,14,rent,,,,1900.0,7.0,8.2876531E7,chalet,Madrid,3,True,269.0,good,"Tres Olivos - Valverde, Madrid","Casa independiente en calle Caballero de los Espejos, 5",https://img3.idealista.com/blur/WEB_LISTING/0/id.pro.es.image.master/3b/b5/82/606833405.jpg,https://www.idealista.com/inmueble/82876531/,POINT(-3.6874911 40.5065853),1729.0741693575928,-10,-170.92583064240716,0
"calle de Ponferrada, 12",1,es,flat,,6476,Fuencarral,True,,1,False,False,True,False,False,40.4745227,-3.7129345,Madrid,Pilar,False,21,rent,,,,875.0,16.0,8.2813351E7,flat,Madrid,2,True,55.0,good,"Pilar, Madrid","Piso en calle de Ponferrada, 12",https://img3.idealista.com/blur/WEB_LISTING/0/id.pro.es.image.master/c0/e3/46/610672335.jpg,https://www.idealista.com/inmueble/82813351/,POINT(-3.7129345 40.4745227),767.5361949047217,-14,-107.4638050952783,0
"calle de la Hierbabuena, Madrid",1,es,flat,,4618,Tetuán,False,,0,False,False,True,False,False,40.4581556,-3.7019194,Madrid,Berruguete,False,12,rent,,,,700.0,18.0,8.2749515E7,flat,Madrid,1,False,40.0,good,"Berruguete, Madrid","Piso en calle de la Hierbabuena, Madrid",https://img3.idealista.com/blur/WEB_LISTING/0/id.pro.es.image.master/95/d6/32/604112026.jpg,https://www.idealista.com/inmueble/82749515/,POINT(-3.7019194 40.4581556),617.4905463595406,-13,-82.50945364045936,0
barrio Aluche,1,es,flat,,5289,Latina,False,VI-000-030-687-030,0,False,False,False,False,False,40.3881965,-3.7542189,Madrid,Aluche,False,12,rent,,,,605.0,9.0,3.9868606E7,flat,Madrid,3,False,67.0,good,"Aluche, Madrid",Piso,https://img3.idealista.com/blur/WEB_LISTING/0/id.pro.es.image.master/84/f8/17/268262433.jpg,https://www.idealista.com/inmueble/39868606/,POINT(-3.7542189 40.3881965),641.4560785503795,6,36.456078550379516,1
barrio Trafalgar,1,es,flat,,1448,Chamberí,False,3818,-1,False,False,True,False,False,40.4296489,-3.7030175,Madrid,Trafalgar,False,10,rent,,,,850.0,27.0,8.324245E7,flat,Madrid,1,False,31.0,good,"Trafalgar, Madrid",Piso,https://img3.idealista.com/blur/WEB_LISTING/0/id.pro.es.image.master/86/31/cc/614243450.jpg,https://www.idealista.com/inmueble/83242450/,POINT(-3.7030175 40.4296489),947.5080205242526,10,97.50802052425263,1
calle del Cerro Blanco,1,es,flat,,4111,Usera,False,235-VI-000-030-686-715,5,False,False,True,False,False,40.3812452,-3.7181596,Madrid,Zofío,False,7,rent,,,,840.0,10.0,8.2384713E7,flat,Madrid,2,False,83.0,good,"Zofío, Madrid",Piso en calle del Cerro Blanco,https://img3.idealista.com/blur/WEB_LISTING/0/id.pro.es.image.master/ce/cd/5d/597083256.jpg,https://www.idealista.com/inmueble/82384713/,POINT(-3.7181596 40.3812452),723.957094940483,-16,-116.04290505951701,0
barrio Zofío,1,es,flat,,4187,Usera,False,VI-000-030-686-715,0,True,False,True,False,False,40.3804154,-3.7176248,Madrid,Zofío,False,7,rent,,,,840.0,10.0,8.2033609E7,flat,Madrid,2,False,83.0,good,"Zofío, Madrid",Piso,https://img3.idealista.com/blur/WEB_LISTING/0/id.pro.es.image.master/54/1b/84/590051993.jpg,https://www.idealista.com/inmueble/82033609/,POINT(-3.7176248 40.3804154),972.8542778080368,14,132.85427780803684,1
"calle Barquillo, 25",1,es,flat,,981,Centro,False,,2,False,False,True,False,False,40.4226713,-3.6956706,Madrid,Chueca-Justicia,False,2,rent,,,,1100.0,15.0,1932335.0,flat,Madrid,1,True,75.0,good,"Chueca-Justicia, Madrid","Piso en calle Barquillo, 25",https://img3.idealista.com/blur/WEB_LISTING/0/id.pro.es.image.master/ed/c9/36/4190289.jpg,https://www.idealista.com/inmueble/1932335/,POINT(-3.6956706 40.4226713),1412.4311058224434,22,312.43110582244344,1
barrio El Viso,4,es,flat,,3861,Chamartín,True,7672,6,False,False,True,False,False,40.4490568,-3.6877361,Madrid,El Viso,False,14,rent,True,True,,3499.0,21.0,8.3429704E7,flat,Madrid,4,False,170.0,good,"El Viso, Madrid",Piso,https://img3.idealista.com/blur/WEB_LISTING/0/id.pro.es.image.master/88/7e/24/617861177.jpg,https://www.idealista.com/inmueble/83429704/,POINT(-3.6877361 40.4490568),2941.5606323913184,-19,-557.4393676086816,0
"calle de Carlota O’Neill, 34",1,es,flat,,5607,Ciudad Lineal,True,,2,False,False,True,True,False,40.4441175,-3.6485861,Madrid,San Pascual,False,15,rent,,,,795.0,11.0,8.3285536E7,flat,Madrid,2,True,70.0,good,"San Pascual, Madrid","Piso en calle de Carlota O’Neill, 34",https://img3.idealista.com/blur/WEB_LISTING/90/id.pro.es.image.master/36/6f/f1/615104943.jpg,https://www.idealista.com/inmueble/83285536/,POINT(-3.6485861 40.4441175),1030.6559140676266,23,235.65591406762655,1
"calle del Arquitecto Rafael Leoz, Madrid",3,es,chalet,semidetachedHouse,8365,Moncloa,False,W-02E2YN,0,False,False,False,True,False,40.4520035,-3.7914142,Madrid,Aravaca,False,30,rent,True,True,,2200.0,10.0,8.2866432E7,chalet,Madrid,3,False,219.0,good,"Aravaca, Madrid","Chalet pareado en calle del Arquitecto Rafael Leoz, Madrid",https://img3.idealista.com/blur/WEB_LISTING/0/id.pro.es.image.master/c7/ab/c6/606657447.jpg,https://www.idealista.com/inmueble/82866432/,POINT(-3.7914142 40.4520035),2162.743731633262,-2,-37.25626836673791,0
barrio Fuentelarreina,3,es,flat,,7495,Fuencarral,True,MIA01431,2,False,False,True,True,True,40.47819,-3.74033,Madrid,Fuentelarreina,False,32,rent,True,True,,2200.0,13.0,8.287722E7,flat,Madrid,3,False,173.0,good,"Fuentelarreina, Madrid",Piso,https://img3.idealista.com/blur/WEB_LISTING/0/id.pro.es.image.master/bf/41/5a/614696490.jpg,https://www.idealista.com/inmueble/82877220/,POINT(-3.74033 40.47819),2082.6296467691836,-6,-117.37035323081636,0
calle de las Islas Cíes,2,es,flat,,7253,Fuencarral,False,RP72201846948,5,False,False,True,False,False,40.48112,-3.71733,Madrid,Peñagrande,False,30,rent,,,,1100.0,11.0,8.2407411E7,flat,Madrid,4,False,102.0,good,"Peñagrande, Madrid",Piso en calle de las Islas Cíes,https://img3.idealista.com/blur/WEB_LISTING/0/id.pro.es.image.master/df/71/fb/597492319.jpg,https://www.idealista.com/inmueble/82407411/,POINT(-3.71733 40.48112),1216.4295984658154,10,116.42959846581539,1
"calle Malcampo, 18",1,es,flat,,4147,Chamartín,True,3443-01654,3,False,False,False,False,False,40.4456423,-3.6733177,Madrid,Ciudad Jardín,False,20,rent,,,,750.0,12.0,3.7600591E7,flat,Madrid,2,True,63.0,good,"Ciudad Jardín, Madrid","Piso en calle Malcampo, 18",https://img3.idealista.com/blur/WEB_LISTING/0/id.pro.es.image.master/fa/3c/34/221173423.jpg,https://www.idealista.com/inmueble/37600591/,POINT(-3.6733177 40.4456423),1207.2604412643132,38,457.26044126431316,1
"calle de Martín de los Heros, Madrid, 8",1,es,flat,,1144,Moncloa,True,0015-04698,4,False,False,True,False,True,40.4242458,-3.7132885,Madrid,Argüelles,False,54,rent,True,False,150.0,1100.0,20.0,8.25272E7,flat,Madrid,1,True,55.0,good,"Argüelles, Madrid","Piso en calle de Martín de los Heros, Madrid, 8",https://img3.idealista.com/blur/WEB_LISTING/0/id.pro.es.image.master/fc/13/0b/602732280.jpg,https://www.idealista.com/inmueble/82527200/,POINT(-3.7132885 40.4242458),1218.0719165107125,10,118.07191651071253,1
velazquez,2,es,flat,,2088,Salamanca,True,,3,False,False,True,True,False,40.4287002,-3.6852326,Madrid,Recoletos,False,15,rent,True,False,180.0,2650.0,18.0,8.3310808E7,flat,Madrid,3,False,148.0,good,"Recoletos, Madrid",Piso en velazquez,https://img3.idealista.com/blur/WEB_LISTING/0/id.pro.es.image.master/93/5d/d0/615527805.jpg,https://www.idealista.com/inmueble/83310808/,POINT(-3.6852326 40.4287002),2728.019247192876,3,78.01924719287581,1
"calle Dracena, Madrid",2,es,flat,,5959,Chamartín,True,AP05MAD,3,False,False,True,True,False,40.4632335,-3.6693203,Madrid,Nueva España,False,24,rent,,,,1500.0,17.0,8.293912E7,flat,Madrid,2,False,90.0,good,"Nueva España, Madrid","Piso en calle Dracena, Madrid",https://img3.idealista.com/blur/WEB_LISTING/0/id.pro.es.image.master/06/35/1f/607978507.jpg,https://www.idealista.com/inmueble/82939120/,POINT(-3.6693203 40.4632335),1732.2390570506186,13,232.2390570506186,1
"calle Enrique Granados, 8",2,es,flat,,10048,Zona norte,True,,1,False,False,True,True,False,40.4590637,-3.8090103,Pozuelo de Alarcón,Zona norte,False,21,rent,True,True,,1500.0,11.0,8.3042609E7,flat,Madrid,3,True,140.0,good,"Zona norte, Pozuelo de Alarcón","Piso en calle Enrique Granados, 8",https://img3.idealista.com/blur/WEB_LISTING/0/id.pro.es.image.master/7b/02/24/610441732.jpg,https://www.idealista.com/inmueble/83042609/,POINT(-3.8090103 40.4590637),1771.8671624613514,15,271.8671624613514,1
barrio Prosperidad,1,es,flat,,4067,Chamartín,False,FS-A1-1543,2,False,False,True,True,False,40.4416553,-3.6690776,Madrid,Prosperidad,False,14,rent,,,,875.0,15.0,8.3128547E7,flat,Madrid,1,False,60.0,good,"Prosperidad, Madrid",Piso,https://img3.idealista.com/blur/WEB_LISTING/0/id.pro.es.image.master/cb/5d/1f/613632779.jpg,https://www.idealista.com/inmueble/83128547/,POINT(-3.6690776 40.4416553),893.5870959896271,2,18.587095989627073,1
"calle de la Bahía de Cádiz, Madrid",2,es,flat,,10792,Barajas,True,,-1,False,False,True,False,False,40.4633358,-3.5923492,Madrid,Campo de las Naciones-Corralejos,False,24,rent,True,True,,1150.0,12.0,8.3121986E7,flat,Madrid,2,False,98.0,good,"Campo de las Naciones-Corralejos, Madrid","Piso en calle de la Bahía de Cádiz, Madrid",https://img3.idealista.com/blur/WEB_LISTING/0/id.pro.es.image.master/f7/f1/11/611949673.jpg,https://www.idealista.com/inmueble/83121986/,POINT(-3.5923492 40.4633358),1176.55296846151,2,26.55296846151009,1
barrio Valdemarín,4,es,flat,,9082,Moncloa,True,12450,-1,False,False,True,False,False,40.4711,-3.78418,Madrid,Valdemarín,False,24,rent,True,True,,2200.0,12.0,3.2708523E7,flat,Madrid,4,False,188.0,good,"Valdemarín, Madrid",Piso,https://img3.idealista.com/blur/WEB_LISTING/0/id.pro.es.image.master/bd/00/bc/145775815.jpg,https://www.idealista.com/inmueble/32708523/,POINT(-3.78418 40.4711),2731.9299431310938,19,531.9299431310938,1
SERRANO,2,es,flat,,2871,Salamanca,True,7/1093,2,False,False,True,False,False,40.438342,-3.6857379,Madrid,Castellana,False,26,rent,True,False,2200.0,2200.0,19.0,8.2926881E7,flat,Madrid,3,False,118.0,good,"Castellana, Madrid",Piso en SERRANO,https://img3.idealista.com/blur/WEB_LISTING/0/id.pro.es.image.master/19/27/38/607714535.jpg,https://www.idealista.com/inmueble/82926881/,POINT(-3.6857379 40.438342),2304.7719514929927,5,104.77195149299268,1
"calle de los Estudiantes, 5",2,es,flat,,3426,Moncloa,True,2802-015087-01,2,False,False,True,False,False,40.4468036,-3.7125611,Madrid,Ciudad Universitaria,False,19,rent,,,,1500.0,12.0,8.2773848E7,flat,Madrid,3,True,125.0,good,"Ciudad Universitaria, Madrid","Piso en calle de los Estudiantes, 5",https://img3.idealista.com/blur/WEB_LISTING/0/id.pro.es.image.master/7a/60/09/604659189.jpg,https://www.idealista.com/inmueble/82773848/,POINT(-3.7125611 40.4468036),1555.0029106555332,4,55.00291065553324,1
"calle de Colón, 3 ,5",2,es,flat,,831,Centro,True,,3,False,False,False,False,False,40.423744,-3.7010169,Madrid,Malasaña-Universidad,False,25,rent,,,,1500.0,11.0,8.1202422E7,flat,Madrid,2,True,140.0,good,"Malasaña-Universidad, Madrid","Piso en calle de Colón, 3 ,5",https://img3.idealista.com/blur/WEB_LISTING/180/id.pro.es.image.master/ec/23/b4/572162207.jpg,https://www.idealista.com/inmueble/81202422/,POINT(-3.7010169 40.423744),1918.5465348018024,22,418.5465348018024,1
"calle de Josefa Valcárcel, 12",3,es,chalet,terracedHouse,5935,Ciudad Lineal,False,,0,False,False,False,False,False,40.4483883,-3.6477701,Madrid,San Pascual,False,40,rent,True,True,,2300.0,9.0,8.1655224E7,chalet,Madrid,4,True,260.0,good,"San Pascual, Madrid","Chalet adosado en calle de Josefa Valcárcel, 12",https://img3.idealista.com/blur/WEB_LISTING/0/id.pro.es.image.master/4b/89/e5/581686260.jpg,https://www.idealista.com/inmueble/81655224/,POINT(-3.6477701 40.4483883),2322.9860978176675,1,22.98609781766754,1
Encinar de los Reyes,2,es,flat,duplex,11454,Encinar de los Reyes,True,,-1,False,False,True,False,False,40.5113656,-3.6508959,La Moraleja,,False,24,rent,True,True,,2200.0,13.0,8.2519771E7,duplex,Madrid,3,False,165.0,good,"Encinar de los Reyes, La Moraleja",Dúplex,https://img3.idealista.com/blur/WEB_LISTING/0/id.pro.es.image.master/c6/f9/76/599378640.jpg,https://www.idealista.com/inmueble/82519771/,POINT(-3.6508959 40.5113656),1806.2630527378124,-22,-393.73694726218764,0
"calle de Canillas, Madrid",1,es,flat,,4011,Chamartín,False,CANILLAS,3,False,False,True,False,False,40.4436294,-3.6726921,Madrid,Prosperidad,False,11,rent,,,,1150.0,18.0,8.3077495E7,flat,Madrid,3,False,63.0,good,"Prosperidad, Madrid","Piso en calle de Canillas, Madrid",https://img3.idealista.com/blur/WEB_LISTING/0/id.pro.es.image.master/bc/ae/d9/611126361.jpg,https://www.idealista.com/inmueble/83077495/,POINT(-3.6726921 40.4436294),853.4743846594887,-35,-296.5256153405113,0
"baracaldo, 24",1,es,flat,,5928,Tetuán,False,Baracaldo,1,False,False,True,False,False,40.4698945,-3.700241,Madrid,Valdeacederas,False,6,rent,,,,780.0,20.0,8.3020099E7,flat,Madrid,1,True,40.0,good,"Valdeacederas, Madrid","Piso en baracaldo, 24",https://img3.idealista.com/blur/WEB_LISTING/0/id.pro.es.image.master/1e/cf/3c/611469526.jpg,https://www.idealista.com/inmueble/83020099/,POINT(-3.700241 40.4698945),537.8180758519673,-45,-242.18192414803275,0
barrio Cuzco-Castillejos,3,es,flat,,4448,Tetuán,True,,6,False,False,True,False,False,40.4550711,-3.6894903,Madrid,Cuzco-Castillejos,False,19,rent,,,,3000.0,14.0,8.2597395E7,flat,Madrid,4,False,220.0,good,"Cuzco-Castillejos, Madrid",Piso,https://img3.idealista.com/blur/WEB_LISTING/0/id.pro.es.image.master/f0/11/b5/600969575.jpg,https://www.idealista.com/inmueble/82597395/,POINT(-3.6894903 40.4550711),2470.750863247334,-21,-529.2491367526659,0
"calle de Mariano Benlliure, Madrid",1,es,flat,,4298,Puente de Vallecas,True,Mariano Benlliure 685,3,False,False,False,False,False,40.3869918,-3.6716064,Madrid,San Diego,False,9,rent,,,,600.0,10.0,8.267191E7,flat,Madrid,2,False,59.0,good,"San Diego, Madrid","Piso en calle de Mariano Benlliure, Madrid",https://img3.idealista.com/blur/WEB_LISTING/0/id.pro.es.image.master/e5/37/9e/602400580.jpg,https://www.idealista.com/inmueble/82671910/,POINT(-3.6716064 40.3869918),684.7759281078177,12,84.77592810781766,1
barrio Recoletos,3,es,flat,,2121,Salamanca,True,Retiro,6,False,False,True,False,False,40.4209737,-3.6797494,Madrid,Recoletos,False,9,rent,,,,2300.0,12.0,8.2965417E7,flat,Madrid,4,False,200.0,good,"Recoletos, Madrid",Piso,https://img3.idealista.com/blur/WEB_LISTING/0/id.pro.es.image.master/34/0a/e4/608822691.jpg,https://www.idealista.com/inmueble/82965417/,POINT(-3.6797494 40.4209737),3072.896128723306,25,772.896128723306,1
calle de la Princesa,2,es,flat,,1852,Moncloa,False,cla0-rebeca-arguelles1700,4,False,False,True,False,False,40.4301462,-3.7169998,Madrid,Argüelles,False,8,rent,,,,1500.0,13.0,8.2424341E7,flat,Madrid,2,False,115.0,good,"Argüelles, Madrid",Piso en calle de la Princesa,https://img3.idealista.com/blur/WEB_LISTING/0/id.pro.es.image.master/67/1c/d6/615534751.jpg,https://www.idealista.com/inmueble/82424341/,POINT(-3.7169998 40.4301462),1695.4460510491385,12,195.44605104913853,1
barrio Recoletos,3,es,flat,,2218,Salamanca,True,Retiro,6,False,False,True,False,False,40.4230737,-3.6793494,Madrid,Recoletos,False,13,rent,,,,2300.0,12.0,8.2841106E7,flat,Madrid,4,False,200.0,good,"Recoletos, Madrid",Piso,https://img3.idealista.com/blur/WEB_LISTING/0/id.pro.es.image.master/cc/2b/c3/606163267.jpg,https://www.idealista.com/inmueble/82841106/,POINT(-3.6793494 40.4230737),3072.896128723306,25,772.896128723306,1
Fuencasa,1,es,flat,,14284,Fuencasa,False,VI-000-030-664-779,0,True,False,True,False,False,40.4298828,-3.5363033,San Fernando de Henares,,False,12,rent,,,,675.0,9.0,8.2033619E7,flat,Madrid,3,False,74.0,good,"Fuencasa, San Fernando de Henares",Piso,https://img3.idealista.com/blur/WEB_LISTING/0/id.pro.es.image.master/57/98/97/590052284.jpg,https://www.idealista.com/inmueble/82033619/,POINT(-3.5363033 40.4298828),1061.7383242005808,36,386.7383242005808,1
barrio Los Ángeles,1,es,flat,,7561,Villaverde,False,VI-000-030-686-757,0,False,False,False,False,False,40.3486696,-3.7018462,Madrid,Los Ángeles,False,13,rent,,,,485.0,8.0,4.0520106E7,flat,Madrid,2,False,61.0,good,"Los Ángeles, Madrid",Piso,https://img3.idealista.com/blur/WEB_LISTING/0/id.pro.es.image.master/6c/89/30/282961931.jpg,https://www.idealista.com/inmueble/40520106/,POINT(-3.7018462 40.3486696),557.5372013344271,13,72.5372013344271,1
calle Toledo,1,es,flat,,14240,Fuencasa,False,235-VI-000-030-664-779,4,False,False,True,False,False,40.429696,-3.5368003,San Fernando de Henares,,False,12,rent,,,,675.0,9.0,8.2073033E7,flat,Madrid,3,False,74.0,good,"Fuencasa, San Fernando de Henares",Piso en calle Toledo,https://img3.idealista.com/blur/WEB_LISTING/0/id.pro.es.image.master/b3/f6/ba/590831479.jpg,https://www.idealista.com/inmueble/82073033/,POINT(-3.5368003 40.429696),812.2207182453593,17,137.2207182453593,1
"amparo, 46",1,es,flat,,887,Centro,True,,3,False,False,True,False,False,40.4087761,-3.702507,Madrid,Lavapiés-Embajadores,False,6,rent,,,,1100.0,18.0,2076963.0,flat,Madrid,2,True,60.0,good,"Lavapiés-Embajadores, Madrid","Piso en amparo, 46",https://img3.idealista.com/blur/WEB_LISTING/0/id.pro.es.image.master/b1/66/50/1138786.jpg,https://www.idealista.com/inmueble/2076963/,POINT(-3.702507 40.4087761),1050.325238895219,-5,-49.674761104781055,0
paseo de la castellana,1,es,flat,,4214,Tetuán,True,AM1811010,6,False,False,True,True,True,40.4530214,-3.690131,Madrid,Cuatro Caminos,False,21,rent,,,,1700.0,16.0,8.3018348E7,flat,Madrid,1,False,105.0,good,"Cuatro Caminos, Madrid",Piso en paseo de la castellana,https://img3.idealista.com/blur/WEB_LISTING/0/id.pro.es.image.master/7a/d9/b2/609907693.jpg,https://www.idealista.com/inmueble/83018348/,POINT(-3.690131 40.4530214),1305.2618410356242,-30,-394.73815896437577,0
"calle de Recoletos, 3",2,es,flat,,1307,Salamanca,True,,4,False,False,True,False,False,40.4223232,-3.6906327,Madrid,Recoletos,False,10,rent,True,True,,2000.0,33.0,8.2829809E7,flat,Madrid,1,True,60.0,good,"Recoletos, Madrid","Piso en calle de Recoletos, 3",https://img3.idealista.com/blur/WEB_LISTING/0/id.pro.es.image.master/3c/20/e1/606231840.jpg,https://www.idealista.com/inmueble/82829809/,POINT(-3.6906327 40.4223232),1959.0087744788993,-2,-40.99122552110066,0
"barbieri, 4",2,es,flat,duplex,671,Centro,True,3248-14101,4,False,False,True,True,True,40.4206695,-3.6982297,Madrid,Chueca-Justicia,False,29,rent,,,,1650.0,16.0,8.2695561E7,duplex,Madrid,2,True,102.0,good,"Chueca-Justicia, Madrid","Dúplex en barbieri, 4",https://img3.idealista.com/blur/WEB_LISTING/0/id.pro.es.image.master/83/8f/d6/602894826.jpg,https://www.idealista.com/inmueble/82695561/,POINT(-3.6982297 40.4206695),2110.314189391227,22,460.31418939122705,1
avenida Burgos,2,es,flat,,6530,Chamartín,True,ALQ-62809,2,True,False,True,True,False,40.4718023,-3.6776186,Madrid,Castilla,False,41,rent,True,True,,3400.0,18.0,8.1850808E7,flat,Madrid,4,False,190.0,good,"Castilla, Madrid",Piso en avenida Burgos,https://img3.idealista.com/blur/WEB_LISTING/0/id.pro.es.image.master/b1/a8/40/586202149.jpg,https://www.idealista.com/inmueble/81850808/,POINT(-3.6776186 40.4718023),2725.597052714724,-25,-674.4029472852758,0
"calle Olivar, Madrid",1,es,flat,,763,Centro,True,04036,1,False,False,False,True,True,40.4098765,-3.7027191,Madrid,Lavapiés-Embajadores,False,24,rent,,,,850.0,17.0,8.3292257E7,flat,Madrid,1,False,50.0,good,"Lavapiés-Embajadores, Madrid","Piso en calle Olivar, Madrid",https://img3.idealista.com/blur/WEB_LISTING/0/id.pro.es.image.master/0d/c8/90/615122502.jpg,https://www.idealista.com/inmueble/83292257/,POINT(-3.7027191 40.4098765),985.8772476613151,14,135.8772476613151,1
"calle de Valderribas, Madrid",2,es,flat,,2832,Retiro,True,W-02DQWB,5,False,False,True,True,False,40.4040037,-3.6751184,Madrid,Pacífico,False,35,rent,True,True,,1690.0,13.0,8.2752697E7,flat,Madrid,3,False,126.0,good,"Pacífico, Madrid","Piso en calle de Valderribas, Madrid",https://img3.idealista.com/blur/WEB_LISTING/0/id.pro.es.image.master/6a/ca/ff/604168076.jpg,https://www.idealista.com/inmueble/82752697/,POINT(-3.6751184 40.4040037),1802.3025545045928,6,112.30255450459276,1
"nanclares de Oca, 20",2,es,flat,,11264,San Blas,True,,3,False,False,True,False,False,40.445155,-3.57644,Madrid,Rejas,False,22,rent,,,,975.0,11.0,8.3346319E7,flat,Madrid,2,True,85.0,good,"Rejas, Madrid","Piso en nanclares de Oca, 20",https://img3.idealista.com/blur/WEB_LISTING/0/id.pro.es.image.master/0f/e5/25/616236859.jpg,https://www.idealista.com/inmueble/83346319/,POINT(-3.57644 40.445155),994.7706413953563,2,19.77064139535628,1
calle de Francisco Silvela,1,es,flat,studio,3192,Salamanca,False,RP79201849456,7,False,False,True,False,False,40.4351318,-3.6752886,Madrid,Guindalera,False,24,rent,,,,850.0,31.0,8.3196947E7,studio,Madrid,0,False,27.0,good,"Guindalera, Madrid",Estudio en calle de Francisco Silvela,https://img3.idealista.com/blur/WEB_LISTING/0/id.pro.es.image.master/4e/e4/fe/613252941.jpg,https://www.idealista.com/inmueble/83196947/,POINT(-3.6752886 40.4351318),562.1154435062027,-51,-287.8845564937973,0
calle del Corazón de María,5,es,flat,,3953,Chamartín,True,03529,10,False,False,True,True,True,40.4412758,-3.6704568,Madrid,Prosperidad,False,20,rent,True,True,,4000.0,10.0,8.2954447E7,flat,Madrid,5,False,400.0,good,"Prosperidad, Madrid",Piso en calle del Corazón de María,https://img3.idealista.com/blur/WEB_LISTING/0/id.pro.es.image.master/eb/0c/7b/608431974.jpg,https://www.idealista.com/inmueble/82954447/,POINT(-3.6704568 40.4412758),4138.8623179499,3,138.8623179499,1
pelayo,1,es,flat,,761,Centro,False,02077,-1,False,False,True,True,True,40.4218734,-3.6983435,Madrid,Chueca-Justicia,False,28,rent,,,,1250.0,26.0,8.2061996E7,flat,Madrid,1,False,49.0,good,"Chueca-Justicia, Madrid",Piso en pelayo,https://img3.idealista.com/blur/WEB_LISTING/0/id.pro.es.image.master/23/f7/fb/590595960.jpg,https://www.idealista.com/inmueble/82061996/,POINT(-3.6983435 40.4218734),1364.8241611380424,8,114.82416113804243,1
"calle de Navaleno, Madrid",4,es,flat,,6978,Hortaleza,True,03162,4,False,False,True,True,True,40.4707183,-3.6622656,Madrid,Apóstol Santiago,False,25,rent,True,True,,2400.0,11.0,8.2736575E7,flat,Madrid,5,False,225.0,good,"Apóstol Santiago, Madrid","Piso en calle de Navaleno, Madrid",https://img3.idealista.com/blur/WEB_LISTING/0/id.pro.es.image.master/8b/dc/08/603718684.jpg,https://www.idealista.com/inmueble/82736575/,POINT(-3.6622656 40.4707183),2711.780943838137,11,311.78094383813686,1
"calle Espejo, Madrid",1,es,flat,penthouse,620,Centro,True,03652,6,False,False,True,True,True,40.4166342,-3.711489,Madrid,Palacio,False,25,rent,,,,1400.0,16.0,8.3002105E7,penthouse,Madrid,2,False,90.0,good,"Palacio, Madrid","Ático en calle Espejo, Madrid",https://img3.idealista.com/blur/WEB_LISTING/0/id.pro.es.image.master/20/a5/c6/612687265.jpg,https://www.idealista.com/inmueble/83002105/,POINT(-3.711489 40.4166342),1506.32790766225,7,106.32790766225003,1
"calle del Hierro, Madrid, 4 F",2,es,flat,,2999,Arganzuela,True,,2,False,False,True,True,False,40.39144,-3.69156,Madrid,Legazpi,False,65,rent,True,True,,1150.0,12.0,8.3219532E7,flat,Madrid,2,True,97.0,good,"Legazpi, Madrid","Piso en calle del Hierro, Madrid, 4 F",https://img3.idealista.com/blur/WEB_LISTING/0/id.pro.es.image.master/48/75/72/613745704.jpg,https://www.idealista.com/inmueble/83219532/,POINT(-3.69156 40.39144),1569.2914409867421,27,419.29144098674215,1
Encinar de los Reyes,5,es,chalet,semidetachedHouse,11255,Encinar de los Reyes,False,A5138I,0,False,False,False,False,False,40.5040595,-3.6370482,La Moraleja,,False,33,rent,True,True,,3450.0,11.0,8.2615531E7,chalet,Madrid,5,False,320.0,good,"Encinar de los Reyes, La Moraleja",Chalet pareado,https://img3.idealista.com/blur/WEB_LISTING/0/id.pro.es.image.master/77/d0/8b/614595886.jpg,https://www.idealista.com/inmueble/82615531/,POINT(-3.6370482 40.5040595),3155.5950382358315,-9,-294.40496176416855,0
barrio La Finca,5,es,chalet,semidetachedHouse,8721,Zona Prado de Somosaguas - La Finca,False,PA7105I,0,False,False,False,False,False,40.4201672,-3.8070805,Pozuelo de Alarcón,La Finca,False,29,rent,True,True,,4000.0,8.0,8.1618577E7,chalet,Madrid,5,False,480.0,good,"La Finca, Pozuelo de Alarcón",Chalet pareado,https://img3.idealista.com/blur/WEB_LISTING/0/id.pro.es.image.master/b4/41/49/616650038.jpg,https://www.idealista.com/inmueble/81618577/,POINT(-3.8070805 40.4201672),4030.093574749835,1,30.09357474983517,1
calle de Hernani,2,es,flat,,3512,Tetuán,False,MVB-A2587C,2,False,False,True,False,False,40.4482047,-3.7020754,Madrid,Cuatro Caminos,False,8,rent,,,,1600.0,15.0,8.2958195E7,flat,Madrid,3,False,105.0,good,"Cuatro Caminos, Madrid",Piso en calle de Hernani,https://img3.idealista.com/blur/WEB_LISTING/0/id.pro.es.image.master/de/ba/e7/608673543.jpg,https://www.idealista.com/inmueble/82958195/,POINT(-3.7020754 40.4482047),1401.409812719683,-14,-198.59018728031697,0
barrio Valdemarín,4,es,flat,penthouse,9548,Moncloa,True,12588,2,False,False,True,False,False,40.4716528,-3.7908259,Madrid,Valdemarín,False,25,rent,True,True,,4000.0,10.0,3.5271501E7,penthouse,Madrid,4,False,410.0,good,"Valdemarín, Madrid",Ático,https://img3.idealista.com/blur/WEB_LISTING/0/id.pro.es.image.master/fb/6e/4d/177731657.jpg,https://www.idealista.com/inmueble/35271501/,POINT(-3.7908259 40.4716528),4114.570944692598,3,114.57094469259755,1
"calle Virgen de los Peligros, Madrid",1,es,flat,,541,Centro,True,DG-VIRGEN1200,1,False,False,True,False,True,40.4183912,-3.6981811,Madrid,Huertas-Cortes,False,53,rent,,,,1200.0,15.0,8.3194967E7,flat,Madrid,1,False,78.0,good,"Huertas-Cortes, Madrid","Piso en calle Virgen de los Peligros, Madrid",https://img3.idealista.com/blur/WEB_LISTING/0/id.pro.es.image.master/46/be/83/613207991.jpg,https://www.idealista.com/inmueble/83194967/,POINT(-3.6981811 40.4183912),1308.4403944622577,8,108.4403944622577,1
calle Araucaria,1,es,flat,,4880,Tetuán,True,RP223201848680,1,False,False,True,False,False,40.4602676,-3.6976707,Madrid,Berruguete,False,18,rent,,,,800.0,11.0,8.2905954E7,flat,Madrid,1,False,73.0,good,"Berruguete, Madrid",Piso en calle Araucaria,https://img3.idealista.com/blur/WEB_LISTING/0/id.pro.es.image.master/c6/96/58/611831046.jpg,https://www.idealista.com/inmueble/82905954/,POINT(-3.6976707 40.4602676),929.0329337662829,14,129.0329337662829,1
"calle de O'Donnell, Madrid, 36",3,es,flat,,2585,Retiro,True,,3,False,False,True,False,False,40.421223,-3.6742198,Madrid,Ibiza,False,39,rent,,,,1600.0,11.0,8.31836E7,flat,Madrid,4,True,145.0,good,"Ibiza, Madrid","Piso en calle de O'Donnell, Madrid, 36",https://img3.idealista.com/blur/WEB_LISTING/0/id.pro.es.image.master/31/7a/e8/613681856.jpg,https://www.idealista.com/inmueble/83183600/,POINT(-3.6742198 40.421223),2295.235856421121,30,695.2358564211208,1
barrio Lista,1,es,flat,,2808,Salamanca,False,MS-00031,6,False,False,True,True,True,40.4332305,-3.6791278,Madrid,Lista,False,42,rent,,,,2000.0,20.0,8.2040412E7,flat,Madrid,3,False,100.0,good,"Lista, Madrid",Piso,https://img3.idealista.com/blur/WEB_LISTING/0/id.pro.es.image.master/1b/08/d8/590230656.jpg,https://www.idealista.com/inmueble/82040412/,POINT(-3.6791278 40.4332305),1692.3277894554326,-18,-307.6722105445674,0
velázquez,2,es,flat,,2639,Salamanca,True,EE-02053,2,False,False,True,False,False,40.434399,-3.6834507,Madrid,Castellana,False,25,rent,True,True,,4000.0,18.0,8.2835138E7,flat,Madrid,2,False,220.0,good,"Castellana, Madrid",Piso en velázquez,https://img3.idealista.com/blur/WEB_LISTING/90/id.pro.es.image.master/8b/19/b5/285647714.jpg,https://www.idealista.com/inmueble/82835138/,POINT(-3.6834507 40.434399),2854.7038693839518,-40,-1145.2961306160482,0
barrio Ventas,1,es,flat,,4589,Ciudad Lineal,True,HCALQ11,6,False,False,True,False,False,40.4307951,-3.6532191,Madrid,Ventas,False,13,rent,True,True,,980.0,15.0,8.3314506E7,flat,Madrid,2,False,64.0,good,"Ventas, Madrid",Piso,https://img3.idealista.com/blur/WEB_LISTING/0/id.pro.es.image.master/40/12/a9/615602960.jpg,https://www.idealista.com/inmueble/83314506/,POINT(-3.6532191 40.4307951),855.9522861413818,-14,-124.04771385861818,0
barrio Argüelles,4,es,flat,,1521,Moncloa,True,MADR14973,2,False,False,True,False,False,40.4272811,-3.7154936,Madrid,Argüelles,False,28,rent,True,True,,3400.0,14.0,8.2835069E7,flat,Madrid,4,False,240.0,renew,"Argüelles, Madrid",Piso,https://img3.idealista.com/blur/WEB_LISTING/0/id.pro.es.image.master/06/be/46/606040071.jpg,https://www.idealista.com/inmueble/82835069/,POINT(-3.7154936 40.4272811),3173.5502217624744,-7,-226.4497782375256,0
"calle de Julian Camarillo, 59",1,es,flat,,7615,San Blas,True,,3,False,False,True,False,False,40.4381872,-3.6187542,Madrid,Simancas,False,26,rent,True,True,,850.0,14.0,3.9776739E7,flat,Madrid,1,True,59.0,good,"Simancas, Madrid","Piso en calle de Julian Camarillo, 59",https://img3.idealista.com/blur/WEB_LISTING/0/id.pro.es.image.master/5c/a0/48/616988150.jpg,https://www.idealista.com/inmueble/39776739/,POINT(-3.6187542 40.4381872),789.1295522862913,-8,-60.8704477137087,0
barrio Lavapiés-Embajadores,1,es,flat,,596,Centro,False,J 0072,1,False,False,False,False,False,40.4123765,-3.6999191,Madrid,Lavapiés-Embajadores,False,8,rent,,,,850.0,15.0,8.3281709E7,flat,Madrid,1,False,55.0,good,"Lavapiés-Embajadores, Madrid",Piso,https://img3.idealista.com/blur/WEB_LISTING/0/id.pro.es.image.master/af/05/18/614934644.jpg,https://www.idealista.com/inmueble/83281709/,POINT(-3.6999191 40.4123765),791.1288248866293,-7,-58.87117511337067,0
calle Espejo,1,es,flat,penthouse,320,Centro,True,,6,False,False,True,True,True,40.4158844,-3.7078115,Madrid,Palacio,False,13,rent,,,,1400.0,18.0,8.3257629E7,penthouse,Madrid,2,False,80.0,good,"Palacio, Madrid",Ático en calle Espejo,https://img3.idealista.com/blur/WEB_LISTING/0/id.pro.es.image.master/e4/56/8a/614542848.jpg,https://www.idealista.com/inmueble/83257629/,POINT(-3.7078115 40.4158844),1447.6380192264248,3,47.63801922642483,1
barrio Somosaguas,4,es,chalet,semidetachedHouse,8410,Somosaguas,False,D1021,0,False,False,False,False,False,40.4228729,-3.8031847,Pozuelo de Alarcón,Somosaguas,False,22,rent,True,True,,2500.0,6.0,8.1330177E7,chalet,Madrid,5,False,425.0,good,"Somosaguas, Pozuelo de Alarcón",Chalet pareado,https://img3.idealista.com/blur/WEB_LISTING/0/id.pro.es.image.master/3b/36/53/574789455.jpg,https://www.idealista.com/inmueble/81330177/,POINT(-3.8031847 40.4228729),3613.787858202316,31,1113.7878582023159,1
Encinar de los Reyes,4,es,flat,duplex,11410,Encinar de los Reyes,True,AV02,4,False,False,True,False,False,40.5111225,-3.6514777,La Moraleja,,False,27,rent,,,,2500.0,15.0,3.5750451E7,duplex,Madrid,4,False,170.0,good,"Encinar de los Reyes, La Moraleja",Dúplex,https://img3.idealista.com/blur/WEB_LISTING/0/id.pro.es.image.master/49/4f/6b/186126476.jpg,https://www.idealista.com/inmueble/35750451/,POINT(-3.6514777 40.5111225),2257.6014367710804,-11,-242.39856322891956,0
Urb. este - Montepríncipe,4,es,chalet,semidetachedHouse,11695,Urb. este - Montepríncipe,False,1021,0,False,False,False,False,False,40.4091589,-3.8419545,Boadilla del Monte,,False,28,rent,True,True,,2500.0,6.0,8.284914E7,chalet,Madrid,5,False,425.0,good,"Urb. este - Montepríncipe, Boadilla del Monte",Chalet pareado,https://img3.idealista.com/blur/WEB_LISTING/0/id.pro.es.image.master/45/90/5b/606345015.jpg,https://www.idealista.com/inmueble/82849140/,POINT(-3.8419545 40.4091589),3546.525724093583,30,1046.525724093583,1
chinchilla,1,es,flat,,195,Centro,True,a99,5,False,False,True,False,False,40.4182376,-3.7051793,Madrid,Sol,False,5,rent,,,,850.0,16.0,8.3267978E7,flat,Madrid,1,False,53.0,good,"Sol, Madrid",Piso en chinchilla,https://img3.idealista.com/blur/WEB_LISTING/0/id.pro.es.image.master/29/72/8f/614687383.jpg,https://www.idealista.com/inmueble/83267978/,POINT(-3.7051793 40.4182376),1279.5873106914648,34,429.58731069146484,1
"calle del Corazón de María, 2",5,es,flat,duplex,3783,Chamartín,True,,10,False,False,True,False,False,40.4401758,-3.6718568,Madrid,Prosperidad,False,38,rent,True,True,,4000.0,10.0,8.2964328E7,duplex,Madrid,5,True,400.0,good,"Prosperidad, Madrid","Dúplex en calle del Corazón de María, 2",https://img3.idealista.com/blur/WEB_LISTING/0/id.pro.es.image.master/de/dc/84/608866180.jpg,https://www.idealista.com/inmueble/82964328/,POINT(-3.6718568 40.4401758),4072.0823681894044,2,72.0823681894044,1
barrio Apóstol Santiago,3,es,flat,,6672,Hortaleza,True,T.L.,4,False,False,True,False,False,40.4678183,-3.6629656,Madrid,Apóstol Santiago,False,25,rent,,,,2390.0,10.0,8.2370677E7,flat,Madrid,4,False,241.0,good,"Apóstol Santiago, Madrid",Piso,https://img3.idealista.com/blur/WEB_LISTING/0/id.pro.es.image.master/c8/6d/fe/596795264.jpg,https://www.idealista.com/inmueble/82370677/,POINT(-3.6629656 40.4678183),2344.378738736575,-2,-45.62126126342491,0
"calle Antonio Casero, 10",1,es,flat,,3080,Retiro,False,2806-013903-02,3,False,False,True,False,False,40.4200282,-3.6680399,Madrid,Estrella,False,15,rent,,,,800.0,12.0,8.281092E7,flat,Madrid,2,True,65.0,good,"Estrella, Madrid","Piso en calle Antonio Casero, 10",https://img3.idealista.com/blur/WEB_LISTING/0/id.pro.es.image.master/93/4f/38/605453312.jpg,https://www.idealista.com/inmueble/82810920/,POINT(-3.6680399 40.4200282),719.7662972213546,-11,-80.23370277864535,0
"calle de Luis Mitjans, Madrid, 20",1,es,flat,,3381,Retiro,True,Cl21118,4,False,False,True,False,False,40.4001352,-3.6706227,Madrid,Adelfas,False,12,rent,,,,800.0,14.0,8.2858217E7,flat,Madrid,2,True,59.0,good,"Adelfas, Madrid","Piso en calle de Luis Mitjans, Madrid, 20",https://img3.idealista.com/blur/WEB_LISTING/0/id.pro.es.image.master/c9/21/49/608419630.jpg,https://www.idealista.com/inmueble/82858217/,POINT(-3.6706227 40.4001352),906.5038843450859,12,106.50388434508591,1
Encinar de los Reyes,4,es,flat,penthouse,11247,Encinar de los Reyes,True,,2,False,False,True,False,False,40.5098172,-3.652362,La Moraleja,,False,10,rent,True,True,,2500.0,13.0,3.5428419E7,penthouse,Madrid,4,False,200.0,good,"Encinar de los Reyes, La Moraleja",Ático,https://img3.idealista.com/blur/WEB_LISTING/0/id.pro.es.image.master/13/68/b4/180510826.jpg,https://www.idealista.com/inmueble/35428419/,POINT(-3.652362 40.5098172),2550.6662853894168,2,50.66628538941677,1
"calle Eraso, Madrid",1,es,flat,studio,3586,Salamanca,True,7784,1,False,False,True,False,False,40.4361832,-3.6704411,Madrid,Guindalera,False,7,rent,,,,800.0,17.0,8.3221295E7,studio,Madrid,0,False,48.0,good,"Guindalera, Madrid","Estudio en calle Eraso, Madrid",https://img3.idealista.com/blur/WEB_LISTING/0/id.pro.es.image.master/05/a4/07/613796668.jpg,https://www.idealista.com/inmueble/83221295/,POINT(-3.6704411 40.4361832),798.8870031762822,0,-1.1129968237178218,0
"calle de Chinchilla, Madrid",1,es,flat,,287,Centro,False,cr213,5,False,False,True,False,False,40.4190376,-3.7054793,Madrid,Sol,False,17,rent,,,,850.0,15.0,8.3081668E7,flat,Madrid,1,False,55.0,good,"Sol, Madrid","Piso en calle de Chinchilla, Madrid",https://img3.idealista.com/blur/WEB_LISTING/0/id.pro.es.image.master/f1/fa/93/611212922.jpg,https://www.idealista.com/inmueble/83081668/,POINT(-3.7054793 40.4190376),1174.079955897778,28,324.07995589777806,1
barrio Cuatro Caminos,4,es,flat,,4501,Tetuán,True,1888-3112,2,False,False,True,False,False,40.4558865,-3.691027,Madrid,Cuatro Caminos,False,11,rent,True,True,,4000.0,17.0,3.1053349E7,flat,Madrid,4,False,240.0,good,"Cuatro Caminos, Madrid",Piso,https://img3.idealista.com/blur/WEB_LISTING/0/id.pro.es.image.master/c6/a4/24/193765935.jpg,https://www.idealista.com/inmueble/31053349/,POINT(-3.691027 40.4558865),2890.739773889722,-38,-1109.260226110278,0
"calle de la Sombrerería, 3",1,es,flat,,1074,Centro,False,,4,False,False,True,False,False,40.407616,-3.6996849,Madrid,Lavapiés-Embajadores,False,14,rent,,,,1400.0,22.0,3.9386737E7,flat,Madrid,2,True,65.0,good,"Lavapiés-Embajadores, Madrid","Piso en calle de la Sombrerería, 3",https://img3.idealista.com/blur/WEB_LISTING/0/id.pro.es.image.master/c8/6c/e4/258959527.jpg,https://www.idealista.com/inmueble/39386737/,POINT(-3.6996849 40.407616),963.0452737199472,-45,-436.9547262800528,0
"calle del Cactus, Madrid, 37",1,es,flat,,5094,Tetuán,True,,2,False,False,False,False,False,40.462337,-3.699511,Madrid,Valdeacederas,False,13,rent,,,,850.0,13.0,8.3100218E7,flat,Madrid,2,True,63.0,good,"Valdeacederas, Madrid","Piso en calle del Cactus, Madrid, 37",https://img3.idealista.com/blur/WEB_LISTING/0/id.pro.es.image.master/fc/70/83/611568133.jpg,https://www.idealista.com/inmueble/83100218/,POINT(-3.699511 40.462337),776.7151719973085,-9,-73.28482800269148,0
barrio Recoletos,2,es,flat,penthouse,1408,Salamanca,False,r1197,5,False,False,True,False,False,40.4211854,-3.6886199,Madrid,Recoletos,False,12,rent,,,,1600.0,18.0,8.2230463E7,penthouse,Madrid,2,False,90.0,good,"Recoletos, Madrid",Ático,https://img3.idealista.com/blur/WEB_LISTING/0/id.pro.es.image.master/95/7b/79/593867569.jpg,https://www.idealista.com/inmueble/82230463/,POINT(-3.6886199 40.4211854),2064.5827783565655,23,464.58277835656554,1
"calle Gil Imón, 2",1,es,flat,,1386,Arganzuela,True,,-1,False,False,True,False,False,40.4077397,-3.7156189,Madrid,Imperial,False,20,rent,,,,850.0,16.0,3.7554756E7,flat,Madrid,1,True,52.0,good,"Imperial, Madrid","Piso en calle Gil Imón, 2",https://img3.idealista.com/blur/WEB_LISTING/0/id.pro.es.image.master/01/fe/7a/220171928.jpg,https://www.idealista.com/inmueble/37554756/,POINT(-3.7156189 40.4077397),818.8535496235266,-4,-31.146450376473354,0
"calle de Bustamante, Madrid",1,es,flat,,2113,Arganzuela,True,Bustamante 990,6,False,False,True,False,False,40.398908,-3.6952242,Madrid,Palos de Moguer,False,10,rent,,,,990.0,18.0,8.3216866E7,flat,Madrid,3,False,56.0,good,"Palos de Moguer, Madrid","Piso en calle de Bustamante, Madrid",https://img3.idealista.com/blur/WEB_LISTING/0/id.pro.es.image.master/6b/f8/70/613694560.jpg,https://www.idealista.com/inmueble/83216866/,POINT(-3.6952242 40.398908),994.0518061643692,0,4.051806164369168,1
barrio Costillares,1,es,flat,,8110,Ciudad Lineal,True,Dulce,3,False,False,True,False,False,40.4820403,-3.6616708,Madrid,Costillares,False,12,rent,True,True,,850.0,14.0,8.2344238E7,flat,Madrid,1,False,60.0,good,"Costillares, Madrid",Piso,https://img3.idealista.com/blur/WEB_LISTING/0/id.pro.es.image.master/4a/06/a1/596198974.jpg,https://www.idealista.com/inmueble/82344238/,POINT(-3.6616708 40.4820403),818.9472210011813,-4,-31.052778998818667,0
calle de Villamanín,1,es,flat,,4125,Latina,True,A180,1,False,False,True,False,False,40.4054718,-3.7506248,Madrid,Lucero,False,36,rent,,,,900.0,10.0,8.2992248E7,flat,Madrid,3,False,92.0,good,"Lucero, Madrid",Piso en calle de Villamanín,https://img3.idealista.com/blur/WEB_LISTING/0/id.pro.es.image.master/3b/ca/bb/615981197.jpg,https://www.idealista.com/inmueble/82992248/,POINT(-3.7506248 40.4054718),928.3177483104672,3,28.31774831046721,1
