address,bathrooms,country,detailedType,distance,district,exterior,externalReference,floor,has360,has3DTour,hasLift,hasPlan,hasVideo,latitude,longitude,municipality,neighborhood,newDevelopment,numPhotos,operation,parkingSpace,price,priceByArea,propertyCode,propertyType,province,rooms,showAddress,size,status,suggestedTexts,thumbnail,url
"calle de San Restituto, 14",1,es,{'typology': 'flat'},5370,Moncloa,True,,3,False,False,True,False,False,40.4646941,-3.7107396,Madrid,Valdezarza,False,6,rent,"{'hasParkingSpace': True, 'isParkingSpaceIncludedInPrice': True}",450.0,11.0,39665037,flat,Madrid,1,True,42.0,good,"{'subtitle': 'Valdezarza, Madrid', 'title': 'Piso en calle de San Restituto, 14'}",https://img3.idealista.com/blur/WEB_LISTING/0/id.pro.es.image.master/e0/e1/14/618567745.jpg,https://www.idealista.com/inmueble/39665037/
saliente,4,es,"{'typology': 'chalet', 'subTypology': 'independantHouse'}",12096,Urbanizaciones,False,,,False,False,,False,False,40.4330817,-3.8454306,Pozuelo de Alarcón,Montealina,False,41,rent,"{'hasParkingSpace': True, 'isParkingSpaceIncludedInPrice': True}",1900.0,5.0,82149948,chalet,Madrid,4,False,375.0,good,"{'subtitle': 'Montealina, Pozuelo de Alarcón', 'title': 'Casa independiente en saliente'}",https://img3.idealista.com/blur/WEB_LISTING/0/id.pro.es.image.master/5d/28/cd/592374865.jpg,https://www.idealista.com/inmueble/82149948/
calle Gran Vía,7,es,{'typology': 'flat'},360,Centro,True,SGG120982,2,False,False,True,False,False,40.4188578,-3.7010318,Madrid,Sol,False,17,rent,,10000.0,24.0,39496068,flat,Madrid,6,False,410.0,good,"{'subtitle': 'Sol, Madrid', 'title': 'Piso en calle Gran Vía'}",https://img3.idealista.com/blur/WEB_LISTING/0/id.pro.es.image.master/ca/5d/8e/263452146.jpg,https://www.idealista.com/inmueble/39496068/
"calle Mallorca, 3",1,es,{'typology': 'flat'},1192,Centro,True,,en,False,False,True,False,False,40.4071354,-3.697682,Madrid,Lavapiés-Embajadores,False,12,rent,,1200.0,17.0,37138962,flat,Madrid,3,True,70.0,good,"{'subtitle': 'Lavapiés-Embajadores, Madrid', 'title': 'Piso en calle Mallorca, 3'}",https://img3.idealista.com/blur/WEB_LISTING/0/id.pro.es.image.master/83/28/f9/215085503.jpg,https://www.idealista.com/inmueble/37138962/
"calle Valmojado, 181",3,es,{'typology': 'flat'},5422,Latina,True,,5,False,False,True,False,False,40.3899565,-3.7577512,Madrid,Aluche,False,7,rent,"{'hasParkingSpace': True, 'isParkingSpaceIncludedInPrice': True}",650.0,8.0,83311256,flat,Madrid,3,True,79.0,good,"{'subtitle': 'Aluche, Madrid', 'title': 'Piso en calle Valmojado, 181'}",https://img3.idealista.com/blur/WEB_LISTING/0/id.pro.es.image.master/bc/de/9f/618574517.jpg,https://www.idealista.com/inmueble/83311256/
"avenida donostiarra, 21",2,es,{'typology': 'flat'},4326,Ciudad Lineal,True,,11,False,False,True,False,False,40.4345648,-3.6587854,Madrid,Concepción,False,6,rent,"{'hasParkingSpace': True, 'isParkingSpaceIncludedInPrice': True}",550.0,8.0,31436202,flat,Madrid,2,True,65.0,good,"{'subtitle': 'Concepción, Madrid', 'title': 'Piso en avenida donostiarra, 21'}",https://img3.idealista.com/blur/WEB_LISTING/0/id.pro.es.image.master/f7/ca/bb/618572008.jpg,https://www.idealista.com/inmueble/31436202/
"calle de la Fuente del Berro, 37",1,es,{'typology': 'flat'},2919,Salamanca,False,,1,False,False,True,False,False,40.4236009,-3.6709046,Madrid,Goya,False,27,rent,,1400.0,28.0,35885404,flat,Madrid,2,True,50.0,good,"{'subtitle': 'Goya, Madrid', 'title': 'Piso en calle de la Fuente del Berro, 37'}",https://img3.idealista.com/blur/WEB_LISTING/0/id.pro.es.image.master/21/ab/84/188357293.jpg,https://www.idealista.com/inmueble/35885404/
"calle de José Ortega y Gasset, Madrid",1,es,{'typology': 'flat'},3034,Salamanca,False,,7,False,False,True,False,False,40.4309973,-3.673658,Madrid,Lista,False,5,rent,,1050.0,16.0,83243159,flat,Madrid,2,False,65.0,good,"{'subtitle': 'Lista, Madrid', 'title': 'Piso en calle de José Ortega y Gasset, Madrid'}",https://img3.idealista.com/blur/WEB_LISTING/0/id.pro.es.image.master/02/08/ac/614255907.jpg,https://www.idealista.com/inmueble/83243159/
"calle Reina, Madrid, 39",2,es,{'typology': 'flat'},650,Centro,True,MADRID,1,False,False,True,False,False,40.4197143,-3.6976117,Madrid,Chueca-Justicia,False,7,rent,"{'hasParkingSpace': True, 'isParkingSpaceIncludedInPrice': True}",500.0,6.0,83065105,flat,Madrid,2,True,90.0,good,"{'subtitle': 'Chueca-Justicia, Madrid', 'title': 'Piso en calle Reina, Madrid, 39'}",https://img3.idealista.com/blur/WEB_LISTING/0/id.pro.es.image.master/5c/bf/f9/618590698.jpg,https://www.idealista.com/inmueble/83065105/
barrio Castellana,6,es,"{'typology': 'flat', 'subTypology': 'duplex'}",2582,Salamanca,True,,4,False,False,True,False,False,40.431753,-3.680971,Madrid,Castellana,False,18,rent,"{'hasParkingSpace': True, 'isParkingSpaceIncludedInPrice': False, 'parkingSpacePrice': 150.0}",7500.0,19.0,39489844,duplex,Madrid,7,False,400.0,good,"{'subtitle': 'Castellana, Madrid', 'title': 'Dúplex'}",https://img3.idealista.com/blur/WEB_LISTING/0/id.pro.es.image.master/0c/9f/05/260863489.jpg,https://www.idealista.com/inmueble/39489844/
"calle Hermanos Bécquer, Madrid",3,es,{'typology': 'flat'},2340,Salamanca,True,7/1074,1,False,False,True,False,False,40.433944,-3.6883836,Madrid,Castellana,False,36,rent,,2700.0,15.0,82730214,flat,Madrid,3,False,185.0,good,"{'subtitle': 'Castellana, Madrid', 'title': 'Piso en calle Hermanos Bécquer, Madrid'}",https://img3.idealista.com/blur/WEB_LISTING/0/id.pro.es.image.master/d9/c8/45/603878438.jpg,https://www.idealista.com/inmueble/82730214/
"calle Alcolea, 6",1,es,{'typology': 'flat'},6328,Tetuán,True,,1,False,False,False,False,False,40.4726149,-3.690494,Madrid,Ventilla-Almenara,False,15,rent,,800.0,18.0,81849696,flat,Madrid,1,True,45.0,good,"{'subtitle': 'Ventilla-Almenara, Madrid', 'title': 'Piso en calle Alcolea, 6'}",https://img3.idealista.com/blur/WEB_LISTING/90/id.pro.es.image.master/5a/df/05/616248716.jpg,https://www.idealista.com/inmueble/81849696/
duque de pastrana,3,es,{'typology': 'flat'},5965,Chamartín,True,,1,False,False,True,False,False,40.4667309,-3.6788611,Madrid,Castilla,False,7,rent,"{'hasParkingSpace': True, 'isParkingSpaceIncludedInPrice': True}",3200.0,12.0,82726394,flat,Madrid,4,False,260.0,good,"{'subtitle': 'Castilla, Madrid', 'title': 'Piso en duque de pastrana'}",https://img3.idealista.com/blur/WEB_LISTING/0/id.pro.es.image.master/a2/56/79/603508787.jpg,https://www.idealista.com/inmueble/82726394/
"calle Dos Hermanas, Madrid, 17",2,es,"{'typology': 'flat', 'subTypology': 'penthouse'}",724,Centro,True,28-852823,4,False,False,True,False,False,40.410276,-3.7058888,Madrid,Lavapiés-Embajadores,False,30,rent,,2000.0,15.0,82838135,penthouse,Madrid,5,True,137.0,good,"{'subtitle': 'Lavapiés-Embajadores, Madrid', 'title': 'Ático en calle Dos Hermanas, Madrid, 17'}",https://img3.idealista.com/blur/WEB_LISTING/0/id.pro.es.image.master/d8/2d/5b/606098543.jpg,https://www.idealista.com/inmueble/82838135/
"calle de Alcalá, Madrid, 90",1,es,"{'typology': 'flat', 'subTypology': 'penthouse'}",2291,Salamanca,False,,6,False,False,True,False,False,40.4233164,-3.6785468,Madrid,Goya,False,13,rent,,1200.0,17.0,83098740,penthouse,Madrid,1,True,70.0,good,"{'subtitle': 'Goya, Madrid', 'title': 'Ático en calle de Alcalá, Madrid, 90'}",https://img3.idealista.com/blur/WEB_LISTING/90/id.pro.es.image.master/8f/2f/27/611538796.jpg,https://www.idealista.com/inmueble/83098740/
"calle Rosa Menéndez, Madrid, 26",1,es,{'typology': 'flat'},4925,Tetuán,True,Rosa Menéndez,1,False,False,True,False,False,40.4608846,-3.7073534,Madrid,Berruguete,False,6,rent,,780.0,20.0,83020845,flat,Madrid,1,True,40.0,good,"{'subtitle': 'Berruguete, Madrid', 'title': 'Piso en calle Rosa Menéndez, Madrid, 26'}",https://img3.idealista.com/blur/WEB_LISTING/0/id.pro.es.image.master/c2/36/67/611834418.jpg,https://www.idealista.com/inmueble/83020845/
"calle del Prado, 29",1,es,{'typology': 'flat'},592,Centro,True,,3,False,False,True,False,False,40.4153679,-3.6973695,Madrid,Huertas-Cortes,False,17,rent,,1200.0,24.0,83282273,flat,Madrid,1,True,50.0,good,"{'subtitle': 'Huertas-Cortes, Madrid', 'title': 'Piso en calle del Prado, 29'}",https://img3.idealista.com/blur/WEB_LISTING/0/id.pro.es.image.master/6a/fa/2a/614943206.jpg,https://www.idealista.com/inmueble/83282273/
"calle Velázquez, Madrid, 102",3,es,"{'typology': 'flat', 'subTypology': 'penthouse'}",2659,Salamanca,True,938001,8,True,False,True,True,False,40.4344488,-3.6831675,Madrid,Castellana,False,25,rent,"{'hasParkingSpace': True, 'isParkingSpaceIncludedInPrice': True}",6500.0,29.0,82018135,penthouse,Madrid,3,True,227.0,good,"{'subtitle': 'Castellana, Madrid', 'title': 'Ático en calle Velázquez, Madrid, 102'}",https://img3.idealista.com/blur/WEB_LISTING/0/id.pro.es.image.master/2f/53/54/612505458.jpg,https://www.idealista.com/inmueble/82018135/
calle de Claudio Coello,4,es,"{'typology': 'flat', 'subTypology': 'penthouse'}",1935,Salamanca,True,994,5,False,False,True,False,False,40.4274814,-3.6862596,Madrid,Castellana,False,56,rent,"{'hasParkingSpace': True, 'isParkingSpaceIncludedInPrice': True}",3950.0,16.0,81345556,penthouse,Madrid,4,False,240.0,good,"{'subtitle': 'Castellana, Madrid', 'title': 'Ático en calle de Claudio Coello'}",https://img3.idealista.com/blur/WEB_LISTING/0/id.pro.es.image.master/04/4d/e6/593203125.jpg,https://www.idealista.com/inmueble/81345556/
barrio Castilla,4,es,{'typology': 'flat'},6483,Chamartín,True,A16700,1,False,False,True,False,False,40.4713023,-3.6774186,Madrid,Castilla,False,43,rent,"{'hasParkingSpace': True, 'isParkingSpaceIncludedInPrice': True}",3700.0,19.0,83423794,flat,Madrid,4,False,200.0,good,"{'subtitle': 'Castilla, Madrid', 'title': 'Piso'}",https://img3.idealista.com/blur/WEB_LISTING/0/id.pro.es.image.master/83/21/9d/618514376.jpg,https://www.idealista.com/inmueble/83423794/
barrio Recoletos,2,es,"{'typology': 'flat', 'subTypology': 'penthouse'}",2051,Salamanca,True,150037,7,False,False,True,True,False,40.4237558,-3.6817995,Madrid,Recoletos,False,24,rent,,3300.0,14.0,40397490,penthouse,Madrid,3,False,230.0,good,"{'subtitle': 'Recoletos, Madrid', 'title': 'Ático'}",https://img3.idealista.com/blur/WEB_LISTING/0/id.pro.es.image.master/a4/50/7d/279509808.jpg,https://www.idealista.com/inmueble/40397490/
calle de Don Ramón de la Cruz,3,es,"{'typology': 'flat', 'subTypology': 'penthouse'}",2036,Salamanca,True,RE-DRC,5,False,False,True,False,False,40.4289221,-3.6863016,Madrid,Castellana,False,21,rent,,4500.0,14.0,81606119,penthouse,Madrid,4,False,320.0,good,"{'subtitle': 'Castellana, Madrid', 'title': 'Ático en calle de Don Ramón de la Cruz'}",https://img3.idealista.com/blur/WEB_LISTING/0/id.pro.es.image.master/dc/8e/21/580493454.jpg,https://www.idealista.com/inmueble/81606119/
cronos,1,es,"{'typology': 'flat', 'subTypology': 'duplex'}",7554,San Blas,True,Cronos Duplex,4,False,False,True,False,False,40.4396137,-3.6201516,Madrid,Simancas,False,13,rent,"{'hasParkingSpace': True, 'isParkingSpaceIncludedInPrice': True}",900.0,13.0,82617639,duplex,Madrid,1,False,70.0,good,"{'subtitle': 'Simancas, Madrid', 'title': 'Dúplex en cronos'}",https://img3.idealista.com/blur/WEB_LISTING/0/id.pro.es.image.master/6b/86/48/615135408.jpg,https://www.idealista.com/inmueble/82617639/
"calle de la Ballesta, Madrid",1,es,{'typology': 'flat'},679,Centro,False,Richard Telf: 689370919.,bj,False,False,False,False,False,40.4225412,-3.7020117,Madrid,Malasaña-Universidad,False,17,rent,,900.0,30.0,83294073,flat,Madrid,2,False,30.0,good,"{'subtitle': 'Malasaña-Universidad, Madrid', 'title': 'Piso en calle de la Ballesta, Madrid'}",https://img3.idealista.com/blur/WEB_LISTING/0/id.pro.es.image.master/15/d6/f8/615157612.jpg,https://www.idealista.com/inmueble/83294073/
Encinar de los Reyes,4,es,"{'typology': 'flat', 'subTypology': 'penthouse'}",11926,Encinar de los Reyes,True,MOA01231,3,False,False,True,False,False,40.5049226,-3.6240665,La Moraleja,,False,18,rent,"{'hasParkingSpace': True, 'isParkingSpaceIncludedInPrice': True}",4500.0,14.0,82389787,penthouse,Madrid,4,False,330.0,good,"{'subtitle': 'Encinar de los Reyes, La Moraleja', 'title': 'Ático'}",https://img3.idealista.com/blur/WEB_LISTING/0/id.pro.es.image.master/18/48/fd/597175243.jpg,https://www.idealista.com/inmueble/82389787/
Encinar de los Reyes,4,es,{'typology': 'flat'},11617,Encinar de los Reyes,False,W-02DV76,,False,False,True,False,False,40.5085559,-3.6388313,La Moraleja,,False,48,rent,"{'hasParkingSpace': True, 'isParkingSpaceIncludedInPrice': True}",4500.0,20.0,82539469,flat,Madrid,4,False,220.0,,"{'subtitle': 'Encinar de los Reyes, La Moraleja', 'title': 'Piso'}",https://img3.idealista.com/blur/WEB_LISTING/0/id.pro.es.image.master/ab/34/36/599805844.jpg,https://www.idealista.com/inmueble/82539469/
calle de Santa Cruz de Marcenado,1,es,{'typology': 'flat'},1687,Centro,True,STC,3,False,False,True,False,False,40.4311329,-3.710155,Madrid,Malasaña-Universidad,False,17,rent,,1350.0,12.0,82388158,flat,Madrid,2,False,110.0,good,"{'subtitle': 'Malasaña-Universidad, Madrid', 'title': 'Piso en calle de Santa Cruz de Marcenado'}",https://img3.idealista.com/blur/WEB_LISTING/0/id.pro.es.image.master/8d/c9/6e/597144333.jpg,https://www.idealista.com/inmueble/82388158/
Encinar de los Reyes,2,es,{'typology': 'flat'},11721,Encinar de los Reyes,True,A1024,3,False,False,True,False,False,40.5034226,-3.6254665,La Moraleja,,False,18,rent,"{'hasParkingSpace': True, 'isParkingSpaceIncludedInPrice': True}",4500.0,13.0,82258911,flat,Madrid,3,False,350.0,good,"{'subtitle': 'Encinar de los Reyes, La Moraleja', 'title': 'Piso'}",https://img3.idealista.com/blur/WEB_LISTING/0/id.pro.es.image.master/2e/2d/40/594435674.jpg,https://www.idealista.com/inmueble/82258911/
calle de la Flora,1,es,{'typology': 'flat'},515,Centro,True,JSC-A-3382,1,False,False,True,False,False,40.4198985,-3.7085094,Madrid,Sol,False,30,rent,,2500.0,15.0,83431110,flat,Madrid,1,False,170.0,,"{'subtitle': 'Sol, Madrid', 'title': 'Piso en calle de la Flora'}",https://img3.idealista.com/blur/WEB_LISTING/0/id.pro.es.image.master/0f/d9/9b/617881567.jpg,https://www.idealista.com/inmueble/83431110/
"calle de José Ortega y Gasset, Madrid",2,es,{'typology': 'flat'},3043,Salamanca,True,W-02DY9Y,3,False,False,True,True,False,40.4281039,-3.6715093,Madrid,Lista,False,29,rent,"{'hasParkingSpace': True, 'isParkingSpaceIncludedInPrice': True}",2900.0,19.0,82739615,flat,Madrid,2,False,154.0,good,"{'subtitle': 'Lista, Madrid', 'title': 'Piso en calle de José Ortega y Gasset, Madrid'}",https://img3.idealista.com/blur/WEB_LISTING/0/id.pro.es.image.master/7f/a8/ae/603774954.jpg,https://www.idealista.com/inmueble/82739615/
FRANCISCO SANCHA,2,es,{'typology': 'flat'},8162,Fuencarral,True,03972,3,False,False,True,True,True,40.4888685,-3.6868405,Madrid,Tres Olivos - Valverde,False,25,rent,"{'hasParkingSpace': True, 'isParkingSpaceIncludedInPrice': True}",1000.0,10.0,83230669,flat,Madrid,2,False,105.0,good,"{'subtitle': 'Tres Olivos - Valverde, Madrid', 'title': 'Piso en FRANCISCO SANCHA'}",https://img3.idealista.com/blur/WEB_LISTING/0/id.pro.es.image.master/d7/bd/60/614009925.jpg,https://www.idealista.com/inmueble/83230669/
"calle rafael calvo, 22",2,es,{'typology': 'flat'},2114,Chamberí,True,,4,False,False,True,False,False,40.433909,-3.6936448,Madrid,Almagro,False,32,rent,,2000.0,12.0,31238824,flat,Madrid,3,True,163.0,good,"{'subtitle': 'Almagro, Madrid', 'title': 'Piso en calle rafael calvo, 22'}",https://img3.idealista.com/blur/WEB_LISTING/0/id.pro.es.image.master/dd/c5/e8/595499553.jpg,https://www.idealista.com/inmueble/31238824/
barrio Almagro,4,es,{'typology': 'flat'},1777,Chamberí,True,slpp29,1,False,False,True,False,False,40.4306061,-3.6939052,Madrid,Almagro,False,30,rent,,4000.0,13.0,82422732,flat,Madrid,3,False,319.0,good,"{'subtitle': 'Almagro, Madrid', 'title': 'Piso'}",https://img3.idealista.com/blur/WEB_LISTING/0/id.pro.es.image.master/a3/27/e5/604914634.jpg,https://www.idealista.com/inmueble/82422732/
"avenida Ciudad de Barcelona, Madrid",1,es,{'typology': 'flat'},2676,Retiro,True,04455,1,False,False,False,False,False,40.4011427,-3.6799937,Madrid,Pacífico,False,25,rent,,1000.0,16.0,83227656,flat,Madrid,2,False,61.0,good,"{'subtitle': 'Pacífico, Madrid', 'title': 'Piso en avenida Ciudad de Barcelona, Madrid'}",https://img3.idealista.com/blur/WEB_LISTING/0/id.pro.es.image.master/eb/09/f6/613947207.jpg,https://www.idealista.com/inmueble/83227656/
"calle Francisco Sancha, 22",2,es,"{'typology': 'flat', 'subTypology': 'penthouse'}",7999,Fuencarral,True,,3,False,False,True,False,False,40.4875685,-3.6882405,Madrid,Tres Olivos - Valverde,False,19,rent,"{'hasParkingSpace': True, 'isParkingSpaceIncludedInPrice': False, 'parkingSpacePrice': 100.0}",1000.0,10.0,82296826,penthouse,Madrid,2,True,105.0,good,"{'subtitle': 'Tres Olivos - Valverde, Madrid', 'title': 'Ático en calle Francisco Sancha, 22'}",https://img3.idealista.com/blur/WEB_LISTING/0/id.pro.es.image.master/43/ed/ac/614930558.jpg,https://www.idealista.com/inmueble/82296826/
barrio Opañel,1,es,{'typology': 'flat'},2769,Carabanchel,False,VI-000-030-686-778,,False,False,,False,False,40.3950805,-3.720501,Madrid,Opañel,False,15,rent,,575.0,9.0,81640855,flat,Madrid,2,False,61.0,good,"{'subtitle': 'Opañel, Madrid', 'title': 'Piso'}",https://img3.idealista.com/blur/WEB_LISTING/0/id.pro.es.image.master/8c/18/17/581392872.jpg,https://www.idealista.com/inmueble/81640855/
barrio Sol,2,es,{'typology': 'flat'},356,Centro,True,,1,False,False,True,False,False,40.4194985,-3.7061094,Madrid,Sol,False,33,rent,,2500.0,15.0,82243663,flat,Madrid,1,False,170.0,good,"{'subtitle': 'Sol, Madrid', 'title': 'Piso'}",https://img3.idealista.com/blur/WEB_LISTING/0/id.pro.es.image.master/b1/81/23/594128501.jpg,https://www.idealista.com/inmueble/82243663/
"calle del Mesón de Paredes, 54",1,es,{'typology': 'flat'},832,Centro,True,,2,False,False,False,False,False,40.4091699,-3.7038218,Madrid,Lavapiés-Embajadores,False,7,rent,,500.0,14.0,83017343,flat,Madrid,1,True,35.0,good,"{'subtitle': 'Lavapiés-Embajadores, Madrid', 'title': 'Piso en calle del Mesón de Paredes, 54'}",https://img3.idealista.com/blur/WEB_LISTING/0/id.pro.es.image.master/98/d2/1c/609891336.jpg,https://www.idealista.com/inmueble/83017343/
calle de Velazquez,1,es,{'typology': 'flat'},2156,Salamanca,True,1820,6,False,False,True,False,False,40.4266043,-3.6822922,Madrid,Recoletos,False,5,rent,,1574.0,23.0,27286715,flat,Madrid,1,False,69.0,good,"{'subtitle': 'Recoletos, Madrid', 'title': 'Piso en calle de Velazquez'}",https://img3.idealista.com/blur/WEB_LISTING/0/id.pro.es.image.master/66/47/8a/118730800.jpg,https://www.idealista.com/inmueble/27286715/
barrio Goya,1,es,{'typology': 'flat'},2773,Salamanca,True,,1,False,False,True,False,False,40.4228446,-3.6724179,Madrid,Goya,False,7,rent,,950.0,12.0,83018775,flat,Madrid,2,False,80.0,good,"{'subtitle': 'Goya, Madrid', 'title': 'Piso'}",https://img3.idealista.com/blur/WEB_LISTING/0/id.pro.es.image.master/12/02/55/609915833.jpg,https://www.idealista.com/inmueble/83018775/
"paseo de la Castellana, 157",1,es,"{'typology': 'flat', 'subTypology': 'studio'}",5041,Tetuán,True,AIDE77400050071,2,False,False,True,False,True,40.4609259,-3.6912974,Madrid,Cuzco-Castillejos,False,20,rent,,1105.0,19.0,37142342,studio,Madrid,0,True,59.0,good,"{'subtitle': 'Cuzco-Castillejos, Madrid', 'title': 'Estudio en paseo de la Castellana, 157'}",https://img3.idealista.com/blur/WEB_LISTING/0/id.pro.es.image.master/cc/b1/08/218648726.jpg,https://www.idealista.com/inmueble/37142342/
barrio Bellas Vistas,2,es,"{'typology': 'flat', 'subTypology': 'duplex'}",3900,Tetuán,True,A080,3,False,False,True,False,False,40.4517271,-3.7049846,Madrid,Bellas Vistas,False,17,rent,"{'hasParkingSpace': True, 'isParkingSpaceIncludedInPrice': False, 'parkingSpacePrice': 51.0}",999.0,14.0,82494362,duplex,Madrid,2,False,69.0,good,"{'subtitle': 'Bellas Vistas, Madrid', 'title': 'Dúplex'}",https://img3.idealista.com/blur/WEB_LISTING/0/id.pro.es.image.master/49/3c/16/574812833.jpg,https://www.idealista.com/inmueble/82494362/
"lagasca, 19",2,es,{'typology': 'flat'},1713,Salamanca,True,Lagasca XXVII,5,False,False,True,False,False,40.4231721,-3.6858177,Madrid,Recoletos,False,30,rent,,5985.0,29.0,81638898,flat,Madrid,3,True,209.0,good,"{'subtitle': 'Recoletos, Madrid', 'title': 'Piso en lagasca, 19'}",https://img3.idealista.com/blur/WEB_LISTING/0/id.pro.es.image.master/15/50/0a/581361639.jpg,https://www.idealista.com/inmueble/81638898/
"calle del General Díaz Porlier, Madrid",2,es,{'typology': 'flat'},2640,Salamanca,True,,1,False,False,True,False,False,40.4278033,-3.6766182,Madrid,Lista,False,25,rent,,1900.0,17.0,82985828,flat,Madrid,3,False,111.0,good,"{'subtitle': 'Lista, Madrid', 'title': 'Piso en calle del General Díaz Porlier, Madrid'}",https://img3.idealista.com/blur/WEB_LISTING/0/id.pro.es.image.master/fa/c4/f6/609771027.jpg,https://www.idealista.com/inmueble/82985828/
calle de Godella,1,es,{'typology': 'flat'},8202,Villaverde,False,235-VI-000-030-687-145,,False,False,False,False,False,40.3438294,-3.6887233,Madrid,San Cristóbal,False,13,rent,,460.0,7.0,81666930,flat,Madrid,3,False,65.0,good,"{'subtitle': 'San Cristóbal, Madrid', 'title': 'Piso en calle de Godella'}",https://img3.idealista.com/blur/WEB_LISTING/0/id.pro.es.image.master/91/09/9f/581928103.jpg,https://www.idealista.com/inmueble/81666930/
barrio Quintana,1,es,"{'typology': 'flat', 'subTypology': 'penthouse'}",5943,Ciudad Lineal,True,J 1581,3,False,False,True,False,False,40.4403953,-3.6412433,Madrid,Quintana,False,17,rent,"{'hasParkingSpace': True, 'isParkingSpaceIncludedInPrice': False, 'parkingSpacePrice': 150.0}",1350.0,13.0,83276773,penthouse,Madrid,1,False,105.0,good,"{'subtitle': 'Quintana, Madrid', 'title': 'Ático'}",https://img3.idealista.com/blur/WEB_LISTING/0/id.pro.es.image.master/83/6a/0e/614869174.jpg,https://www.idealista.com/inmueble/83276773/
barrio San Cristóbal,1,es,{'typology': 'flat'},8422,Villaverde,False,VI-000-030-687-145,,False,False,,False,False,40.3419817,-3.6874372,Madrid,San Cristóbal,False,14,rent,,460.0,7.0,40286539,flat,Madrid,3,False,65.0,good,"{'subtitle': 'San Cristóbal, Madrid', 'title': 'Piso'}",https://img3.idealista.com/blur/WEB_LISTING/0/id.pro.es.image.master/66/26/64/277312525.jpg,https://www.idealista.com/inmueble/40286539/
"MARQUES DE LA ENSENADA, 16",1,es,{'typology': 'flat'},1402,Centro,True,4055,11,False,False,True,False,False,40.4252675,-3.6920496,Madrid,Chueca-Justicia,False,8,rent,,1850.0,21.0,37117160,flat,Madrid,1,True,90.0,good,"{'subtitle': 'Chueca-Justicia, Madrid', 'title': 'Piso en MARQUES DE LA ENSENADA, 16'}",https://img3.idealista.com/blur/WEB_LISTING/0/id.pro.es.image.master/fb/a7/2e/598665736.jpg,https://www.idealista.com/inmueble/37117160/
"calle Julio Palacios, 37",2,es,{'typology': 'flat'},7450,Fuencarral,True,,1,False,False,True,False,False,40.4833557,-3.6957104,Madrid,La Paz,False,4,rent,"{'hasParkingSpace': True, 'isParkingSpaceIncludedInPrice': False, 'parkingSpacePrice': 100.0}",1150.0,9.0,82871849,flat,Madrid,3,True,134.0,good,"{'subtitle': 'La Paz, Madrid', 'title': 'Piso en calle Julio Palacios, 37'}",https://img3.idealista.com/blur/WEB_LISTING/0/id.pro.es.image.master/f0/83/61/606759698.jpg,https://www.idealista.com/inmueble/82871849/
"avenida de la Ciudad de Barcelona, 95",1,es,{'typology': 'flat'},3302,Retiro,True,,3,False,False,True,False,False,40.3999953,-3.6718689,Madrid,Adelfas,False,9,rent,,1075.0,32.0,39052551,flat,Madrid,1,True,34.0,good,"{'subtitle': 'Adelfas, Madrid', 'title': 'Piso en avenida de la Ciudad de Barcelona, 95'}",https://img3.idealista.com/blur/WEB_LISTING/0/id.pro.es.image.master/71/29/6b/252948974.jpg,https://www.idealista.com/inmueble/39052551/
"calle del Pelicano, 2",1,es,{'typology': 'flat'},4085,Carabanchel,True,,3,False,False,False,False,False,40.3836404,-3.7253391,Madrid,Abrantes,False,5,rent,,725.0,10.0,40512115,flat,Madrid,3,True,70.0,good,"{'subtitle': 'Abrantes, Madrid', 'title': 'Piso en calle del Pelicano, 2'}",https://img3.idealista.com/blur/WEB_LISTING/0/id.pro.es.image.master/17/6b/c6/618476829.jpg,https://www.idealista.com/inmueble/40512115/
"calle del Príncipe de Vergara, Madrid",2,es,{'typology': 'flat'},2917,Salamanca,True,,7,False,False,True,False,False,40.4334886,-3.6777221,Madrid,Lista,False,27,rent,,1700.0,13.0,83433039,flat,Madrid,3,False,130.0,good,"{'subtitle': 'Lista, Madrid', 'title': 'Piso en calle del Príncipe de Vergara, Madrid'}",https://img3.idealista.com/blur/WEB_LISTING/0/id.pro.es.image.master/cb/74/a7/617913962.jpg,https://www.idealista.com/inmueble/83433039/
"calle de Rafael Villa, Madrid",3,es,{'typology': 'flat'},11819,Moncloa,True,W-02CVL3,1,False,False,True,True,False,40.4710131,-3.8241963,Madrid,El Plantío,False,27,rent,"{'hasParkingSpace': True, 'isParkingSpaceIncludedInPrice': True}",1950.0,13.0,83330878,flat,Madrid,4,False,150.0,good,"{'subtitle': 'El Plantío, Madrid', 'title': 'Piso en calle de Rafael Villa, Madrid'}",https://img3.idealista.com/blur/WEB_LISTING/0/id.pro.es.image.master/0c/04/03/615915574.jpg,https://www.idealista.com/inmueble/83330878/
"calle de Ramiro II, Madrid",2,es,{'typology': 'flat'},3151,Chamberí,True,W-02DYGK,5,False,False,True,True,False,40.4449861,-3.7031654,Madrid,Vallehermoso,False,25,rent,"{'hasParkingSpace': True, 'isParkingSpaceIncludedInPrice': True}",1800.0,16.0,82985238,flat,Madrid,2,False,110.0,good,"{'subtitle': 'Vallehermoso, Madrid', 'title': 'Piso en calle de Ramiro II, Madrid'}",https://img3.idealista.com/blur/WEB_LISTING/0/id.pro.es.image.master/5f/61/39/609216321.jpg,https://www.idealista.com/inmueble/82985238/
antonio Pérez,1,es,{'typology': 'flat'},3378,Chamartín,True,03567,4,False,False,True,True,True,40.4421879,-3.6825166,Madrid,El Viso,False,24,rent,,1099.0,12.0,82971920,flat,Madrid,2,False,90.0,good,"{'subtitle': 'El Viso, Madrid', 'title': 'Piso en antonio Pérez'}",https://img3.idealista.com/blur/WEB_LISTING/0/id.pro.es.image.master/7a/10/a0/608937852.jpg,https://www.idealista.com/inmueble/82971920/
barrio Jerónimos,4,es,{'typology': 'flat'},1201,Retiro,True,152839,2,False,False,True,True,False,40.4159587,-3.6900001,Madrid,Jerónimos,False,40,rent,,5500.0,16.0,82732320,flat,Madrid,4,False,337.0,good,"{'subtitle': 'Jerónimos, Madrid', 'title': 'Piso'}",https://img3.idealista.com/blur/WEB_LISTING/0/id.pro.es.image.master/73/67/61/603621680.jpg,https://www.idealista.com/inmueble/82732320/
barrio Recoletos,4,es,"{'typology': 'flat', 'subTypology': 'penthouse'}",1732,Salamanca,True,4030,6,False,False,True,False,False,40.4256818,-3.6874789,Madrid,Recoletos,False,44,rent,,8976.0,19.0,38942328,penthouse,Madrid,5,False,473.0,good,"{'subtitle': 'Recoletos, Madrid', 'title': 'Ático'}",https://img3.idealista.com/blur/WEB_LISTING/0/id.pro.es.image.master/77/ef/72/250814817.jpg,https://www.idealista.com/inmueble/38942328/
Encinar de los Reyes,4,es,"{'typology': 'flat', 'subTypology': 'penthouse'}",11372,Encinar de los Reyes,False,A4309I,2,False,False,True,False,False,40.5072046,-3.6416472,La Moraleja,,False,40,rent,"{'hasParkingSpace': True, 'isParkingSpaceIncludedInPrice': True}",3400.0,17.0,28210681,penthouse,Madrid,5,False,200.0,,"{'subtitle': 'Encinar de los Reyes, La Moraleja', 'title': 'Ático'}",https://img3.idealista.com/blur/WEB_LISTING/0/id.pro.es.image.master/78/a9/7b/614593917.jpg,https://www.idealista.com/inmueble/28210681/
"juan Sanchez, Madrid, 17",1,es,{'typology': 'flat'},6638,Fuencarral,True,IdealJuanSánchez17,1,False,False,True,True,False,40.47523,-3.71937,Madrid,Peñagrande,False,13,rent,,1100.0,16.0,82614794,flat,Madrid,1,True,68.0,good,"{'subtitle': 'Peñagrande, Madrid', 'title': 'Piso en juan Sanchez, Madrid, 17'}",https://img3.idealista.com/blur/WEB_LISTING/0/id.pro.es.image.master/88/af/8e/601323451.jpg,https://www.idealista.com/inmueble/82614794/
barrio Jerónimos,4,es,{'typology': 'flat'},1232,Retiro,True,,2,False,False,True,True,False,40.4166587,-3.6896001,Madrid,Jerónimos,False,48,rent,,5500.0,16.0,82778564,flat,Madrid,4,False,337.0,good,"{'subtitle': 'Jerónimos, Madrid', 'title': 'Piso'}",https://img3.idealista.com/blur/WEB_LISTING/0/id.pro.es.image.master/e7/73/47/604749585.jpg,https://www.idealista.com/inmueble/82778564/
Encinar de los Reyes,6,es,"{'typology': 'flat', 'subTypology': 'penthouse'}",11635,Encinar de los Reyes,True,MOA01904,2,False,False,True,False,False,40.5104046,-3.6430472,La Moraleja,,False,22,rent,"{'hasParkingSpace': True, 'isParkingSpaceIncludedInPrice': True}",3400.0,17.0,82518335,penthouse,Madrid,5,False,200.0,good,"{'subtitle': 'Encinar de los Reyes, La Moraleja', 'title': 'Ático'}",https://img3.idealista.com/blur/WEB_LISTING/0/id.pro.es.image.master/50/7b/46/599345804.jpg,https://www.idealista.com/inmueble/82518335/
calle Cañizares,1,es,{'typology': 'flat'},263,Centro,True,E9B7,2,False,False,True,True,False,40.4146302,-3.7025403,Madrid,Lavapiés-Embajadores,False,7,rent,,975.0,18.0,82824206,flat,Madrid,1,False,54.0,good,"{'subtitle': 'Lavapiés-Embajadores, Madrid', 'title': 'Piso en calle Cañizares'}",https://img3.idealista.com/blur/WEB_LISTING/0/id.pro.es.image.master/18/d3/c1/605760025.jpg,https://www.idealista.com/inmueble/82824206/
barrio Nueva España,2,es,{'typology': 'chalet'},5242,Chamartín,False,BGA-00044,,False,False,,False,False,40.4589034,-3.6766726,Madrid,Nueva España,False,9,rent,"{'hasParkingSpace': True, 'isParkingSpaceIncludedInPrice': True}",2800.0,22.0,82773386,chalet,Madrid,3,False,130.0,,"{'subtitle': 'Nueva España, Madrid', 'title': 'Chalet'}",https://img3.idealista.com/blur/WEB_LISTING/0/id.pro.es.image.master/83/16/7d/604651085.jpg,https://www.idealista.com/inmueble/82773386/
calle Carnero,1,es,{'typology': 'flat'},794,Centro,False,Alquiler Carnero,bj,False,False,False,False,False,40.4096359,-3.7059189,Madrid,Lavapiés-Embajadores,False,17,rent,,850.0,18.0,30517101,flat,Madrid,2,False,48.0,good,"{'subtitle': 'Lavapiés-Embajadores, Madrid', 'title': 'Piso en calle Carnero'}",https://img3.idealista.com/blur/WEB_LISTING/0/id.pro.es.image.master/86/22/c2/101681767.jpg,https://www.idealista.com/inmueble/30517101/
orense,1,es,{'typology': 'flat'},3816,Tetuán,True,,6,False,False,True,False,False,40.4500179,-3.6935814,Madrid,Cuatro Caminos,False,8,rent,,1100.0,18.0,83245793,flat,Madrid,2,False,60.0,good,"{'subtitle': 'Cuatro Caminos, Madrid', 'title': 'Piso en orense'}",https://img3.idealista.com/blur/WEB_LISTING/90/id.pro.es.image.master/c2/cc/ce/614303373.jpg,https://www.idealista.com/inmueble/83245793/
calle Embalse de Valmayor,1,es,{'typology': 'flat'},10571,Villa de Vallecas,True,VM5 - C/E.DE VALMAYOR,7,False,False,True,False,False,40.3620405,-3.6019815,Madrid,Ensanche de Vallecas - La Gavia,False,22,rent,"{'hasParkingSpace': True, 'isParkingSpaceIncludedInPrice': True}",1100.0,11.0,82761875,flat,Madrid,3,False,103.0,good,"{'subtitle': 'Ensanche de Vallecas - La Gavia, Madrid', 'title': 'Piso en calle Embalse de Valmayor'}",https://img3.idealista.com/blur/WEB_LISTING/0/id.pro.es.image.master/d2/29/de/604395113.jpg,https://www.idealista.com/inmueble/82761875/
"calle Maragatería, Madrid",1,es,{'typology': 'flat'},9486,Hortaleza,True,MARGAT1018,bj,False,False,False,False,False,40.484453,-3.6360906,Madrid,Valdebebas - Valdefuentes,False,21,rent,"{'hasParkingSpace': True, 'isParkingSpaceIncludedInPrice': True}",1100.0,17.0,82828153,flat,Madrid,1,False,65.0,good,"{'subtitle': 'Valdebebas - Valdefuentes, Madrid', 'title': 'Piso en calle Maragatería, Madrid'}",https://img3.idealista.com/blur/WEB_LISTING/0/id.pro.es.image.master/23/29/1c/605850906.jpg,https://www.idealista.com/inmueble/82828153/
"calle de Berlanga de Duero, 34",3,es,"{'typology': 'chalet', 'subTypology': 'independantHouse'}",7091,Hortaleza,False,,,False,False,,False,False,40.4720764,-3.6626782,Madrid,Apóstol Santiago,False,31,rent,,1700.0,8.0,25385932,chalet,Madrid,3,True,220.0,good,"{'subtitle': 'Apóstol Santiago, Madrid', 'title': 'Casa independiente en calle de Berlanga de Duero, 34'}",https://img3.idealista.com/blur/WEB_LISTING/0/id.pro.es.image.master/d9/24/80/29702383.jpg,https://www.idealista.com/inmueble/25385932/
Encinar de los Reyes,6,es,"{'typology': 'flat', 'subTypology': 'duplex'}",11394,Encinar de los Reyes,False,W-02DVLH,,False,False,True,False,False,40.5082046,-3.6436472,La Moraleja,,False,52,rent,"{'hasParkingSpace': True, 'isParkingSpaceIncludedInPrice': True}",3400.0,16.0,82609560,duplex,Madrid,4,False,212.0,,"{'subtitle': 'Encinar de los Reyes, La Moraleja', 'title': 'Dúplex'}",https://img3.idealista.com/blur/WEB_LISTING/0/id.pro.es.image.master/f2/89/d7/601225219.jpg,https://www.idealista.com/inmueble/82609560/
calle Nanclares de Oca,2,es,{'typology': 'flat'},11372,San Blas,False,ensa-lucas-nanclares2h,2,False,False,True,False,False,40.4445991,-3.5749066,Madrid,Rejas,False,52,rent,,920.0,10.0,34644164,flat,Madrid,2,False,94.0,,"{'subtitle': 'Rejas, Madrid', 'title': 'Piso en calle Nanclares de Oca'}",https://img3.idealista.com/blur/WEB_LISTING/0/id.pro.es.image.master/11/fd/7f/615545086.jpg,https://www.idealista.com/inmueble/34644164/
blasco de Garay,2,es,{'typology': 'flat'},2480,Chamberí,True,P277MTGR488,5,False,False,True,False,False,40.4384977,-3.710148,Madrid,Arapiles,False,15,rent,"{'hasParkingSpace': True, 'isParkingSpaceIncludedInPrice': False, 'parkingSpacePrice': 180.0}",2650.0,20.0,81796188,flat,Madrid,3,False,133.0,good,"{'subtitle': 'Arapiles, Madrid', 'title': 'Piso en blasco de Garay'}",https://img3.idealista.com/blur/WEB_LISTING/0/id.pro.es.image.master/16/8c/86/584666112.jpg,https://www.idealista.com/inmueble/81796188/
"calle de Federico Moreno Torroba, 1",2,es,{'typology': 'flat'},3341,Retiro,True,,1,False,False,True,False,False,40.4056255,-3.6674486,Madrid,Adelfas,False,9,rent,,1100.0,11.0,82158944,flat,Madrid,2,True,100.0,good,"{'subtitle': 'Adelfas, Madrid', 'title': 'Piso en calle de Federico Moreno Torroba, 1'}",https://img3.idealista.com/blur/WEB_LISTING/0/id.pro.es.image.master/e6/20/dc/592546449.jpg,https://www.idealista.com/inmueble/82158944/
"calle de Ayala, Madrid",2,es,{'typology': 'flat'},2014,Salamanca,False,,en,False,False,True,False,False,40.4257478,-3.683575,Madrid,Recoletos,False,15,rent,,1400.0,16.0,82395224,flat,Madrid,2,False,85.0,good,"{'subtitle': 'Recoletos, Madrid', 'title': 'Piso en calle de Ayala, Madrid'}",https://img3.idealista.com/blur/WEB_LISTING/0/id.pro.es.image.master/21/ea/e7/597275265.jpg,https://www.idealista.com/inmueble/82395224/
"plaza de Cristo Rey, 1",1,es,"{'typology': 'flat', 'subTypology': 'studio'}",2693,Chamberí,True,,8,False,False,True,False,False,40.4387662,-3.7171696,Madrid,Gaztambide,False,0,rent,,725.0,18.0,82958534,studio,Madrid,0,True,40.0,good,"{'subtitle': 'Gaztambide, Madrid', 'title': 'Estudio en plaza de Cristo Rey, 1'}",,https://www.idealista.com/inmueble/82958534/
"calle de Serrano, Madrid",3,es,{'typology': 'flat'},2737,Salamanca,True,M-46-00236,6,True,False,True,True,False,40.437542,-3.6870379,Madrid,Castellana,False,49,rent,,3100.0,23.0,81992199,flat,Madrid,3,False,136.0,good,"{'subtitle': 'Castellana, Madrid', 'title': 'Piso en calle de Serrano, Madrid'}",https://img3.idealista.com/blur/WEB_LISTING/0/id.pro.es.image.master/0e/ea/5d/600479734.jpg,https://www.idealista.com/inmueble/81992199/
"calle de Serrano, Madrid",3,es,{'typology': 'flat'},2709,Salamanca,True,MS-00030,6,False,False,True,True,True,40.437279,-3.6871115,Madrid,Castellana,False,32,rent,"{'hasParkingSpace': True, 'isParkingSpaceIncludedInPrice': False, 'parkingSpacePrice': 150.0}",3100.0,23.0,82482795,flat,Madrid,3,False,136.0,good,"{'subtitle': 'Castellana, Madrid', 'title': 'Piso en calle de Serrano, Madrid'}",https://img3.idealista.com/blur/WEB_LISTING/0/id.pro.es.image.master/5f/55/97/598675607.jpg,https://www.idealista.com/inmueble/82482795/
FRANCISCO CAMPOS,1,es,{'typology': 'flat'},3408,Chamartín,True,3469-00877,1,False,False,True,False,False,40.4421719,-3.6818484,Madrid,El Viso,False,26,rent,"{'hasParkingSpace': True, 'isParkingSpaceIncludedInPrice': False, 'parkingSpacePrice': 115.0}",950.0,16.0,82999202,flat,Madrid,1,False,60.0,good,"{'subtitle': 'El Viso, Madrid', 'title': 'Piso en FRANCISCO CAMPOS'}",https://img3.idealista.com/blur/WEB_LISTING/0/id.pro.es.image.master/cd/b0/c3/609518074.jpg,https://www.idealista.com/inmueble/82999202/
virgen de los Peligros,1,es,{'typology': 'flat'},592,Centro,True,03066,1,False,False,True,True,True,40.4198437,-3.6985481,Madrid,Huertas-Cortes,False,25,rent,,1200.0,14.0,82703303,flat,Madrid,1,False,85.0,good,"{'subtitle': 'Huertas-Cortes, Madrid', 'title': 'Piso en virgen de los Peligros'}",https://img3.idealista.com/blur/WEB_LISTING/0/id.pro.es.image.master/2b/b4/db/603060564.jpg,https://www.idealista.com/inmueble/82703303/
"calle del Conde de Peñalver, Madrid",3,es,{'typology': 'flat'},3065,Salamanca,True,W-02BRUV,3,False,False,True,True,False,40.430759,-3.673038,Madrid,Lista,False,34,rent,"{'hasParkingSpace': True, 'isParkingSpaceIncludedInPrice': True}",2500.0,16.0,82484936,flat,Madrid,3,False,160.0,good,"{'subtitle': 'Lista, Madrid', 'title': 'Piso en calle del Conde de Peñalver, Madrid'}",https://img3.idealista.com/blur/WEB_LISTING/0/id.pro.es.image.master/bb/0c/07/598719725.jpg,https://www.idealista.com/inmueble/82484936/
serrano,3,es,{'typology': 'flat'},2592,Salamanca,True,AM1811037,6,False,False,True,True,True,40.436142,-3.6873379,Madrid,Castellana,False,10,rent,,3100.0,23.0,83215122,flat,Madrid,3,False,136.0,good,"{'subtitle': 'Castellana, Madrid', 'title': 'Piso en serrano'}",https://img3.idealista.com/blur/WEB_LISTING/0/id.pro.es.image.master/cf/5a/23/613660195.jpg,https://www.idealista.com/inmueble/83215122/
barrio Castellana,3,es,{'typology': 'flat'},2934,Salamanca,True,AV-1018-SER-001,6,False,False,True,True,False,40.439342,-3.6864379,Madrid,Castellana,False,31,rent,,3100.0,23.0,82691600,flat,Madrid,3,False,136.0,good,"{'subtitle': 'Castellana, Madrid', 'title': 'Piso'}",https://img3.idealista.com/blur/WEB_LISTING/0/id.pro.es.image.master/f1/a8/3a/602787538.jpg,https://www.idealista.com/inmueble/82691600/
calle Gerardo Cordón,1,es,"{'typology': 'flat', 'subTypology': 'penthouse'}",4490,Ciudad Lineal,True,29581,3,False,False,True,True,False,40.428933,-3.6536203,Madrid,Ventas,False,15,rent,"{'hasParkingSpace': True, 'isParkingSpaceIncludedInPrice': True}",950.0,17.0,82178521,penthouse,Madrid,1,False,55.0,good,"{'subtitle': 'Ventas, Madrid', 'title': 'Ático en calle Gerardo Cordón'}",https://img3.idealista.com/blur/WEB_LISTING/0/id.pro.es.image.master/03/70/52/592964733.jpg,https://www.idealista.com/inmueble/82178521/
"calle Serrano, 93",3,es,{'typology': 'flat'},2760,Salamanca,True,Serrano 6A,6,False,False,True,True,False,40.437542,-3.6865379,Madrid,Castellana,False,43,rent,"{'hasParkingSpace': True, 'isParkingSpaceIncludedInPrice': False, 'parkingSpacePrice': 220.0}",3100.0,23.0,82377473,flat,Madrid,3,True,136.0,good,"{'subtitle': 'Castellana, Madrid', 'title': 'Piso en calle Serrano, 93'}",https://img3.idealista.com/blur/WEB_LISTING/0/id.pro.es.image.master/87/2a/01/596919847.jpg,https://www.idealista.com/inmueble/82377473/
"calle de Serrano, Madrid",3,es,{'typology': 'flat'},2646,Salamanca,True,1476,6,False,False,True,True,True,40.435542,-3.6851379,Madrid,Castellana,False,28,rent,,3100.0,23.0,82390369,flat,Madrid,3,False,136.0,good,"{'subtitle': 'Castellana, Madrid', 'title': 'Piso en calle de Serrano, Madrid'}",https://img3.idealista.com/blur/WEB_LISTING/0/id.pro.es.image.master/fe/b2/2b/597184283.jpg,https://www.idealista.com/inmueble/82390369/
diego de león,1,es,{'typology': 'flat'},2923,Salamanca,True,M-45-00067,1,False,False,True,True,False,40.4322508,-3.6763484,Madrid,Lista,False,30,rent,,1200.0,20.0,30990544,flat,Madrid,1,False,60.0,good,"{'subtitle': 'Lista, Madrid', 'title': 'Piso en diego de león'}",https://img3.idealista.com/blur/WEB_LISTING/0/id.pro.es.image.master/b5/46/c5/613893464.jpg,https://www.idealista.com/inmueble/30990544/
barrio Recoletos,2,es,{'typology': 'flat'},1165,Salamanca,True,salp130,7,False,False,True,False,False,40.4218808,-3.6922332,Madrid,Recoletos,False,40,rent,"{'hasParkingSpace': True, 'isParkingSpaceIncludedInPrice': True}",3000.0,21.0,82545990,flat,Madrid,2,False,140.0,good,"{'subtitle': 'Recoletos, Madrid', 'title': 'Piso'}",https://img3.idealista.com/blur/WEB_LISTING/0/id.pro.es.image.master/6d/42/ed/599918284.jpg,https://www.idealista.com/inmueble/82545990/
calle de Embajadores,3,es,{'typology': 'flat'},868,Centro,True,EP-31272,2,False,False,False,True,True,40.4092717,-3.7075256,Madrid,Lavapiés-Embajadores,False,46,rent,,1800.0,9.0,82483188,flat,Madrid,2,False,200.0,good,"{'subtitle': 'Lavapiés-Embajadores, Madrid', 'title': 'Piso en calle de Embajadores'}",https://img3.idealista.com/blur/WEB_LISTING/0/id.pro.es.image.master/9e/1b/7c/614525991.jpg,https://www.idealista.com/inmueble/82483188/
"calle Marqués Viudo de Pontejos, Madrid",1,es,{'typology': 'flat'},249,Centro,True,03645,3,False,False,True,True,True,40.4166991,-3.7071086,Madrid,Sol,False,25,rent,,1500.0,17.0,82999985,flat,Madrid,2,False,90.0,good,"{'subtitle': 'Sol, Madrid', 'title': 'Piso en calle Marqués Viudo de Pontejos, Madrid'}",https://img3.idealista.com/blur/WEB_LISTING/0/id.pro.es.image.master/26/37/eb/612688793.jpg,https://www.idealista.com/inmueble/82999985/
"calle de Serrano, Madrid",3,es,{'typology': 'flat'},2844,Salamanca,True,M319,6,False,False,True,False,False,40.438442,-3.6865379,Madrid,Castellana,False,34,rent,,3100.0,23.0,82544926,flat,Madrid,3,False,136.0,good,"{'subtitle': 'Castellana, Madrid', 'title': 'Piso en calle de Serrano, Madrid'}",https://img3.idealista.com/blur/WEB_LISTING/0/id.pro.es.image.master/6b/f5/9a/599903417.jpg,https://www.idealista.com/inmueble/82544926/
barrio Castellana,2,es,{'typology': 'flat'},2659,Salamanca,True,AM1807024,2,False,False,True,True,True,40.437042,-3.6877379,Madrid,Castellana,False,14,rent,,2200.0,24.0,81719045,flat,Madrid,3,False,91.0,good,"{'subtitle': 'Castellana, Madrid', 'title': 'Piso'}",https://img3.idealista.com/blur/WEB_LISTING/0/id.pro.es.image.master/b9/6d/3b/583008961.jpg,https://www.idealista.com/inmueble/81719045/
"calle Marcelo Usera, Madrid",2,es,{'typology': 'flat'},3642,Usera,True,Usera,1,False,False,False,True,False,40.3839889,-3.7074275,Madrid,Pradolongo,False,81,rent,,1200.0,14.0,83287884,flat,Madrid,3,False,88.0,good,"{'subtitle': 'Pradolongo, Madrid', 'title': 'Piso en calle Marcelo Usera, Madrid'}",https://img3.idealista.com/blur/WEB_LISTING/0/id.pro.es.image.master/33/02/2c/615045808.jpg,https://www.idealista.com/inmueble/83287884/
calle Villavieja,2,es,{'typology': 'flat'},3768,Latina,False,RP34201848196,6,False,False,True,False,False,40.4093513,-3.7476264,Madrid,Lucero,False,12,rent,,1200.0,12.0,82760139,flat,Madrid,3,False,103.0,good,"{'subtitle': 'Lucero, Madrid', 'title': 'Piso en calle Villavieja'}",https://img3.idealista.com/blur/WEB_LISTING/0/id.pro.es.image.master/b5/ab/57/604337324.jpg,https://www.idealista.com/inmueble/82760139/
sebastian herrera,1,es,{'typology': 'flat'},1675,Arganzuela,False,GP 1183,3,False,False,True,False,False,40.402452,-3.697556,Madrid,Palos de Moguer,False,44,rent,,1200.0,19.0,82495352,flat,Madrid,2,False,62.0,good,"{'subtitle': 'Palos de Moguer, Madrid', 'title': 'Piso en sebastian herrera'}",https://img3.idealista.com/blur/WEB_LISTING/0/id.pro.es.image.master/ce/6c/a1/598946172.jpg,https://www.idealista.com/inmueble/82495352/
barrio Lista,3,es,{'typology': 'flat'},3389,Salamanca,True,,3,False,False,True,False,False,40.4309304,-3.6687821,Madrid,Lista,False,25,rent,"{'hasParkingSpace': True, 'isParkingSpaceIncludedInPrice': True}",2500.0,10.0,83054549,flat,Madrid,4,False,250.0,good,"{'subtitle': 'Lista, Madrid', 'title': 'Piso'}",https://img3.idealista.com/blur/WEB_LISTING/0/id.pro.es.image.master/26/64/b7/610666234.jpg,https://www.idealista.com/inmueble/83054549/
villanueva,2,es,{'typology': 'flat'},1517,Salamanca,True,,7,False,False,True,False,False,40.4239808,-3.6890332,Madrid,Recoletos,False,29,rent,"{'hasParkingSpace': True, 'isParkingSpaceIncludedInPrice': False, 'parkingSpacePrice': 200.0}",3000.0,21.0,82821809,flat,Madrid,2,False,143.0,good,"{'subtitle': 'Recoletos, Madrid', 'title': 'Piso en villanueva'}",https://img3.idealista.com/blur/WEB_LISTING/0/id.pro.es.image.master/29/23/64/605712152.jpg,https://www.idealista.com/inmueble/82821809/
calle del General Pardiñas,1,es,{'typology': 'flat'},2511,Salamanca,False,83,2,False,False,True,False,True,40.4265019,-3.6774645,Madrid,Goya,False,40,rent,,950.0,24.0,81584735,flat,Madrid,1,False,40.0,,"{'subtitle': 'Goya, Madrid', 'title': 'Piso en calle del General Pardiñas'}",https://img3.idealista.com/blur/WEB_LISTING/0/id.pro.es.image.master/82/7a/c1/579690197.jpg,https://www.idealista.com/inmueble/81584735/
"calle de Ladera de los Almendros, 12",2,es,{'typology': 'flat'},7003,Vicálvaro,False,,4,False,False,True,False,False,40.402188,-3.6236569,Madrid,Valdebernardo - Valderribas,False,33,rent,"{'hasParkingSpace': True, 'isParkingSpaceIncludedInPrice': True}",950.0,11.0,82896557,flat,Madrid,3,True,89.0,good,"{'subtitle': 'Valdebernardo - Valderribas, Madrid', 'title': 'Piso en calle de Ladera de los Almendros, 12'}",https://img3.idealista.com/blur/WEB_LISTING/0/id.pro.es.image.master/84/c1/de/607165509.jpg,https://www.idealista.com/inmueble/82896557/
calle Marqués Viudo de Pontejos,1,es,{'typology': 'flat'},217,Centro,True,JSC-A-3355,3,False,False,True,False,False,40.4146991,-3.7043086,Madrid,Sol,False,22,rent,,1500.0,17.0,83128414,flat,Madrid,2,False,90.0,,"{'subtitle': 'Sol, Madrid', 'title': 'Piso en calle Marqués Viudo de Pontejos'}",https://img3.idealista.com/blur/WEB_LISTING/0/id.pro.es.image.master/0e/74/03/612038400.jpg,https://www.idealista.com/inmueble/83128414/
barrio Conde Orgaz-Piovera,6,es,"{'typology': 'chalet', 'subTypology': 'terracedHouse'}",6865,Hortaleza,False,pkp232,,False,False,,False,False,40.4551392,-3.6407157,Madrid,Conde Orgaz-Piovera,False,12,rent,,6000.0,9.0,37419870,chalet,Madrid,6,False,670.0,good,"{'subtitle': 'Conde Orgaz-Piovera, Madrid', 'title': 'Chalet adosado'}",https://img3.idealista.com/blur/WEB_LISTING/0/id.pro.es.image.master/04/9a/b5/217086574.jpg,https://www.idealista.com/inmueble/37419870/
"averroes, 5",3,es,"{'typology': 'chalet', 'subTypology': 'independantHouse'}",2848,Retiro,False,3248-13767,,False,False,,False,False,40.4083528,-3.6723263,Madrid,Niño Jesús,False,38,rent,,3000.0,11.0,81964770,chalet,Madrid,4,True,270.0,good,"{'subtitle': 'Niño Jesús, Madrid', 'title': 'Casa independiente en averroes, 5'}",https://img3.idealista.com/blur/WEB_LISTING/0/id.pro.es.image.master/28/ac/8c/588634350.jpg,https://www.idealista.com/inmueble/81964770/
bausa,1,es,{'typology': 'flat'},6550,Ciudad Lineal,True,A946,11,False,False,True,False,False,40.4695523,-3.6700856,Madrid,Costillares,False,14,rent,"{'hasParkingSpace': True, 'isParkingSpaceIncludedInPrice': True}",990.0,21.0,83172481,flat,Madrid,1,False,47.0,good,"{'subtitle': 'Costillares, Madrid', 'title': 'Piso en bausa'}",https://img3.idealista.com/blur/WEB_LISTING/0/id.pro.es.image.master/ee/a1/e4/612719402.jpg,https://www.idealista.com/inmueble/83172481/
serrano,3,es,{'typology': 'flat'},2928,Salamanca,True,P300,6,False,False,True,False,False,40.439542,-3.6870379,Madrid,Castellana,False,24,rent,"{'hasParkingSpace': True, 'isParkingSpaceIncludedInPrice': False, 'parkingSpacePrice': 200.0}",3100.0,22.0,83030375,flat,Madrid,3,False,140.0,good,"{'subtitle': 'Castellana, Madrid', 'title': 'Piso en serrano'}",https://img3.idealista.com/blur/WEB_LISTING/0/id.pro.es.image.master/f1/95/d7/610148027.jpg,https://www.idealista.com/inmueble/83030375/
"avenida del Doctor Federico Rubio y Galí, Madrid, 1",1,es,{'typology': 'flat'},3495,Tetuán,True,,4,False,False,True,False,False,40.4479265,-3.7084481,Madrid,Bellas Vistas,False,25,rent,,750.0,18.0,82610005,flat,Madrid,1,True,42.0,good,"{'subtitle': 'Bellas Vistas, Madrid', 'title': 'Piso en avenida del Doctor Federico Rubio y Galí, Madrid, 1'}",https://img3.idealista.com/blur/WEB_LISTING/0/id.pro.es.image.master/eb/6f/f1/601232381.jpg,https://www.idealista.com/inmueble/82610005/
velazquez,3,es,{'typology': 'flat'},2108,Salamanca,False,2361,3,False,False,True,False,False,40.4262002,-3.6826326,Madrid,Recoletos,False,20,rent,,3023.0,20.0,39806907,flat,Madrid,3,False,148.0,good,"{'subtitle': 'Recoletos, Madrid', 'title': 'Piso en velazquez'}",https://img3.idealista.com/blur/WEB_LISTING/0/id.pro.es.image.master/98/b7/a6/266901958.jpg,https://www.idealista.com/inmueble/39806907/
Encinar de los Reyes,4,es,"{'typology': 'flat', 'subTypology': 'duplex'}",11566,Encinar de los Reyes,True,A1025,2,False,False,True,False,False,40.5098989,-3.6435403,La Moraleja,,False,29,rent,"{'hasParkingSpace': True, 'isParkingSpaceIncludedInPrice': True}",3400.0,17.0,82498358,duplex,Madrid,4,False,202.0,good,"{'subtitle': 'Encinar de los Reyes, La Moraleja', 'title': 'Dúplex'}",https://img3.idealista.com/blur/WEB_LISTING/0/id.pro.es.image.master/68/ab/7e/599002351.jpg,https://www.idealista.com/inmueble/82498358/
paz,3,es,{'typology': 'flat'},148,Centro,True,,1,False,False,True,False,False,40.4156651,-3.7053353,Madrid,Sol,False,37,rent,,1900.0,10.0,82626963,flat,Madrid,3,False,190.0,good,"{'subtitle': 'Sol, Madrid', 'title': 'Piso en paz'}",https://img3.idealista.com/blur/WEB_LISTING/0/id.pro.es.image.master/0c/c5/27/601568190.jpg,https://www.idealista.com/inmueble/82626963/
barrio Palacio,3,es,{'typology': 'flat'},966,Centro,True,plc003JM,1,False,False,True,False,False,40.4209111,-3.7141181,Madrid,Palacio,False,35,rent,"{'hasParkingSpace': True, 'isParkingSpaceIncludedInPrice': False, 'parkingSpacePrice': 200.0}",3000.0,13.0,32407431,flat,Madrid,3,False,240.0,good,"{'subtitle': 'Palacio, Madrid', 'title': 'Piso'}",https://img3.idealista.com/blur/WEB_LISTING/0/id.pro.es.image.master/e6/d3/d6/585235074.jpg,https://www.idealista.com/inmueble/32407431/
"calle del Conde de Serrallo, Madrid, 1",1,es,"{'typology': 'flat', 'subTypology': 'studio'}",5568,Tetuán,True,,2,False,False,True,False,False,40.4658983,-3.6921473,Madrid,Ventilla-Almenara,False,10,rent,"{'hasParkingSpace': True, 'isParkingSpaceIncludedInPrice': False, 'parkingSpacePrice': 75.0}",670.0,19.0,81911333,studio,Madrid,0,True,35.0,good,"{'subtitle': 'Ventilla-Almenara, Madrid', 'title': 'Estudio en calle del Conde de Serrallo, Madrid, 1'}",https://img3.idealista.com/blur/WEB_LISTING/0/id.pro.es.image.master/d1/4e/df/587527180.jpg,https://www.idealista.com/inmueble/81911333/
barrio Sol,1,es,{'typology': 'flat'},122,Centro,True,MAYA288,3,False,False,True,False,False,40.4166991,-3.7056086,Madrid,Sol,False,17,rent,,1500.0,17.0,83052202,flat,Madrid,2,False,90.0,,"{'subtitle': 'Sol, Madrid', 'title': 'Piso'}",https://img3.idealista.com/blur/WEB_LISTING/0/id.pro.es.image.master/f6/42/56/615873071.jpg,https://www.idealista.com/inmueble/83052202/
"calle Julia Balenchana, 10",1,es,{'typology': 'flat'},6262,Ciudad Lineal,True,,1,False,False,True,False,False,40.4633479,-3.6627687,Madrid,Atalaya,False,18,rent,"{'hasParkingSpace': True, 'isParkingSpaceIncludedInPrice': True}",1500.0,21.0,83078101,flat,Madrid,1,True,70.0,good,"{'subtitle': 'Atalaya, Madrid', 'title': 'Piso en calle Julia Balenchana, 10'}",https://img3.idealista.com/blur/WEB_LISTING/0/id.pro.es.image.master/77/d8/94/616666064.jpg,https://www.idealista.com/inmueble/83078101/
"calle Alcalde Álvarez de Villaamil, 2",2,es,"{'typology': 'flat', 'subTypology': 'penthouse'}",9270,Hortaleza,True,,5,False,False,True,False,False,40.4894612,-3.6507644,Madrid,Sanchinarro,False,14,rent,"{'hasParkingSpace': True, 'isParkingSpaceIncludedInPrice': True}",1500.0,11.0,2025616,penthouse,Madrid,3,True,140.0,good,"{'subtitle': 'Sanchinarro, Madrid', 'title': 'Ático en calle Alcalde Álvarez de Villaamil, 2'}",https://img3.idealista.com/blur/WEB_LISTING/0/id.pro.es.image.master/40/ec/7e/363465.jpg,https://www.idealista.com/inmueble/2025616/
"calle de las Mártires Concepcionistas, 18",3,es,{'typology': 'flat'},3180,Salamanca,True,,3,False,False,True,False,False,40.4293304,-3.6704821,Madrid,Lista,False,14,rent,"{'hasParkingSpace': True, 'isParkingSpaceIncludedInPrice': True}",2500.0,10.0,83060815,flat,Madrid,4,True,240.0,good,"{'subtitle': 'Lista, Madrid', 'title': 'Piso en calle de las Mártires Concepcionistas, 18'}",https://img3.idealista.com/blur/WEB_LISTING/0/id.pro.es.image.master/4e/f4/e2/610778854.jpg,https://www.idealista.com/inmueble/83060815/
calle y Escalinata de Matilde Landa,1,es,{'typology': 'flat'},6406,Tetuán,False,A2-MAIKE-132,3,False,False,True,False,False,40.4736492,-3.6930931,Madrid,Ventilla-Almenara,False,14,rent,,1120.0,17.0,82995746,flat,Madrid,2,False,65.0,,"{'subtitle': 'Ventilla-Almenara, Madrid', 'title': 'Piso en calle y Escalinata de Matilde Landa'}",https://img3.idealista.com/blur/WEB_LISTING/0/id.pro.es.image.master/c8/8a/06/615550202.jpg,https://www.idealista.com/inmueble/82995746/
"calle Santiago Bernabéu, Madrid",2,es,{'typology': 'flat'},4147,Chamartín,True,,6,False,False,True,False,False,40.4520756,-3.6887909,Madrid,El Viso,False,0,rent,,1200.0,15.0,82809879,flat,Madrid,2,False,80.0,good,"{'subtitle': 'El Viso, Madrid', 'title': 'Piso en calle Santiago Bernabéu, Madrid'}",,https://www.idealista.com/inmueble/82809879/
"calle de Embajadores, 42",1,es,{'typology': 'flat'},900,Centro,False,,2,False,False,False,False,False,40.4085859,-3.7051171,Madrid,Lavapiés-Embajadores,False,14,rent,,600.0,17.0,82967324,flat,Madrid,1,True,35.0,good,"{'subtitle': 'Lavapiés-Embajadores, Madrid', 'title': 'Piso en calle de Embajadores, 42'}",https://img3.idealista.com/blur/WEB_LISTING/0/id.pro.es.image.master/c2/7a/aa/615626096.jpg,https://www.idealista.com/inmueble/82967324/
barrio Abrantes,1,es,{'typology': 'flat'},4561,Carabanchel,False,VI-000-030-686-682,,False,False,True,False,False,40.3808441,-3.7304522,Madrid,Abrantes,False,15,rent,,635.0,8.0,39855963,flat,Madrid,3,False,75.0,good,"{'subtitle': 'Abrantes, Madrid', 'title': 'Piso'}",https://img3.idealista.com/blur/WEB_LISTING/0/id.pro.es.image.master/95/84/0b/268006028.jpg,https://www.idealista.com/inmueble/39855963/
"paseo de la Castellana, Madrid",4,es,{'typology': 'flat'},5144,Tetuán,True,,6,False,False,True,False,False,40.4614418,-3.6888925,Madrid,Cuzco-Castillejos,False,24,rent,"{'hasParkingSpace': True, 'isParkingSpaceIncludedInPrice': True}",3500.0,12.0,83370372,flat,Madrid,6,False,288.0,good,"{'subtitle': 'Cuzco-Castillejos, Madrid', 'title': 'Piso en paseo de la Castellana, Madrid'}",https://img3.idealista.com/blur/WEB_LISTING/0/id.pro.es.image.master/ab/3d/aa/616684039.jpg,https://www.idealista.com/inmueble/83370372/
"calle de Almagro, 30",1,es,{'typology': 'flat'},1804,Chamberí,True,,bj,False,False,True,False,False,40.4302528,-3.692527,Madrid,Almagro,False,28,rent,,1000.0,20.0,82688392,flat,Madrid,2,True,50.0,good,"{'subtitle': 'Almagro, Madrid', 'title': 'Piso en calle de Almagro, 30'}",https://img3.idealista.com/blur/WEB_LISTING/0/id.pro.es.image.master/08/7f/e4/602719315.jpg,https://www.idealista.com/inmueble/82688392/
"ronda de Atocha, Madrid, 12",2,es,{'typology': 'flat'},1259,Centro,False,AR1860i,4,False,False,True,False,False,40.4069042,-3.6965923,Madrid,Lavapiés-Embajadores,False,46,rent,,1300.0,16.0,83341149,flat,Madrid,2,True,81.0,good,"{'subtitle': 'Lavapiés-Embajadores, Madrid', 'title': 'Piso en ronda de Atocha, Madrid, 12'}",https://img3.idealista.com/blur/WEB_LISTING/0/id.pro.es.image.master/15/3e/ae/616147861.jpg,https://www.idealista.com/inmueble/83341149/
calle de Juan Bravo,2,es,{'typology': 'flat'},2453,Salamanca,False,RP164201848789,6,False,False,True,False,False,40.4336925,-3.6857337,Madrid,Castellana,False,10,rent,,1300.0,16.0,82940392,flat,Madrid,2,False,79.0,good,"{'subtitle': 'Castellana, Madrid', 'title': 'Piso en calle de Juan Bravo'}",https://img3.idealista.com/blur/WEB_LISTING/0/id.pro.es.image.master/b2/82/87/608447868.jpg,https://www.idealista.com/inmueble/82940392/
calle de Jorge Juan,1,es,{'typology': 'flat'},2814,Salamanca,False,1101,1,False,False,True,False,False,40.422989,-3.6719757,Madrid,Goya,False,26,rent,,1290.0,25.0,37652830,flat,Madrid,1,False,52.0,good,"{'subtitle': 'Goya, Madrid', 'title': 'Piso en calle de Jorge Juan'}",https://img3.idealista.com/blur/WEB_LISTING/0/id.pro.es.image.master/33/26/7c/603550097.jpg,https://www.idealista.com/inmueble/37652830/
avenida de Burgos,3,es,{'typology': 'flat'},6598,Chamartín,True,MADR12803,1,False,False,True,False,False,40.4724023,-3.6774186,Madrid,Castilla,False,45,rent,"{'hasParkingSpace': True, 'isParkingSpaceIncludedInPrice': True}",3300.0,18.0,82172350,flat,Madrid,3,False,180.0,,"{'subtitle': 'Castilla, Madrid', 'title': 'Piso en avenida de Burgos'}",https://img3.idealista.com/blur/WEB_LISTING/0/id.pro.es.image.master/de/85/5c/592839234.jpg,https://www.idealista.com/inmueble/82172350/
barrio Huertas-Cortes,2,es,{'typology': 'flat'},1309,Centro,True,A18000,1,False,False,True,False,False,40.4092526,-3.6921327,Madrid,Huertas-Cortes,False,38,rent,,2000.0,11.0,83348998,flat,Madrid,4,False,180.0,good,"{'subtitle': 'Huertas-Cortes, Madrid', 'title': 'Piso'}",https://img3.idealista.com/blur/WEB_LISTING/0/id.pro.es.image.master/e1/5e/4d/616287734.jpg,https://www.idealista.com/inmueble/83348998/
barrio Huertas-Cortes,2,es,{'typology': 'flat'},1241,Centro,True,A18000,1,False,False,True,False,False,40.4100526,-3.6923327,Madrid,Huertas-Cortes,False,32,rent,,2000.0,11.0,83414967,flat,Madrid,4,False,180.0,good,"{'subtitle': 'Huertas-Cortes, Madrid', 'title': 'Piso'}",https://img3.idealista.com/blur/WEB_LISTING/0/id.pro.es.image.master/b9/cc/04/617552053.jpg,https://www.idealista.com/inmueble/83414967/
barrio Castellana,3,es,{'typology': 'flat'},2153,Salamanca,True,VAP-0025,5,False,False,True,False,False,40.4322329,-3.6890442,Madrid,Castellana,False,25,rent,,4000.0,13.0,82583148,flat,Madrid,4,False,300.0,good,"{'subtitle': 'Castellana, Madrid', 'title': 'Piso'}",https://img3.idealista.com/blur/WEB_LISTING/0/id.pro.es.image.master/5a/54/59/600674669.jpg,https://www.idealista.com/inmueble/82583148/
"calle de la Princesa, Madrid, 15",1,es,{'typology': 'flat'},1273,Moncloa,True,,5,False,False,True,False,False,40.4258589,-3.7131088,Madrid,Argüelles,False,25,rent,,1400.0,14.0,83215436,flat,Madrid,2,True,101.0,good,"{'subtitle': 'Argüelles, Madrid', 'title': 'Piso en calle de la Princesa, Madrid, 15'}",https://img3.idealista.com/blur/WEB_LISTING/0/id.pro.es.image.master/4a/e9/f2/613666323.jpg,https://www.idealista.com/inmueble/83215436/
"calle Lorenza Correa, 5",2,es,"{'typology': 'flat', 'subTypology': 'duplex'}",4086,Tetuán,True,,bj,False,False,False,True,False,40.4533664,-3.7063986,Madrid,Bellas Vistas,False,19,rent,,1400.0,13.0,83219963,duplex,Madrid,2,True,109.0,good,"{'subtitle': 'Bellas Vistas, Madrid', 'title': 'Dúplex en calle Lorenza Correa, 5'}",https://img3.idealista.com/blur/WEB_LISTING/0/id.pro.es.image.master/0a/09/8d/613789592.jpg,https://www.idealista.com/inmueble/83219963/
arzobispo Morcillo,2,es,{'typology': 'flat'},7487,Fuencarral,True,2275,1,False,False,True,False,False,40.4838322,-3.6979318,Madrid,La Paz,False,13,rent,"{'hasParkingSpace': True, 'isParkingSpaceIncludedInPrice': True}",1400.0,11.0,83013855,flat,Madrid,2,False,130.0,good,"{'subtitle': 'La Paz, Madrid', 'title': 'Piso en arzobispo Morcillo'}",https://img3.idealista.com/blur/WEB_LISTING/0/id.pro.es.image.master/4c/e3/c0/609828429.jpg,https://www.idealista.com/inmueble/83013855/
"rafael bergamin, 5",4,es,"{'typology': 'flat', 'subTypology': 'duplex'}",5282,Ciudad Lineal,True,,7,False,False,True,False,False,40.4509486,-3.6609579,Madrid,San Juan Bautista,False,36,rent,"{'hasParkingSpace': True, 'isParkingSpaceIncludedInPrice': True}",4200.0,15.0,82995615,duplex,Madrid,5,True,285.0,good,"{'subtitle': 'San Juan Bautista, Madrid', 'title': 'Dúplex en rafael bergamin, 5'}",https://img3.idealista.com/blur/WEB_LISTING/0/id.pro.es.image.master/8e/aa/85/609461187.jpg,https://www.idealista.com/inmueble/82995615/
calle de Bordadores,2,es,{'typology': 'flat'},327,Centro,True,2005211405,2,False,False,True,False,False,40.4163389,-3.7080111,Madrid,Sol,False,14,rent,,3500.0,18.0,82218639,flat,Madrid,4,False,194.0,good,"{'subtitle': 'Sol, Madrid', 'title': 'Piso en calle de Bordadores'}",https://img3.idealista.com/blur/WEB_LISTING/0/id.pro.es.image.master/b0/2a/b9/599594823.jpg,https://www.idealista.com/inmueble/82218639/
"calle del Divino Vallés, 6",1,es,{'typology': 'flat'},2378,Arganzuela,True,,3,False,False,True,True,False,40.3963924,-3.6951707,Madrid,Delicias,False,8,rent,,1050.0,16.0,82298418,flat,Madrid,3,True,65.0,good,"{'subtitle': 'Delicias, Madrid', 'title': 'Piso en calle del Divino Vallés, 6'}",https://img3.idealista.com/blur/WEB_LISTING/0/id.pro.es.image.master/06/5e/27/595250038.jpg,https://www.idealista.com/inmueble/82298418/
"calle de Bravo Murillo, Madrid, 9",1,es,"{'typology': 'flat', 'subTypology': 'studio'}",2001,Chamberí,False,Bravo Murillo,bj,False,False,False,False,False,40.4346545,-3.7046841,Madrid,Arapiles,False,8,rent,,700.0,19.0,82045498,studio,Madrid,0,True,37.0,good,"{'subtitle': 'Arapiles, Madrid', 'title': 'Estudio en calle de Bravo Murillo, Madrid, 9'}",https://img3.idealista.com/blur/WEB_LISTING/0/id.pro.es.image.master/36/1d/3b/617247237.jpg,https://www.idealista.com/inmueble/82045498/
"calle de la Paloma, Madrid",1,es,{'typology': 'flat'},832,Centro,False,Paloma,1,False,False,False,False,False,40.4108012,-3.7102922,Madrid,Palacio,False,12,rent,,995.0,11.0,82958692,flat,Madrid,2,False,93.0,good,"{'subtitle': 'Palacio, Madrid', 'title': 'Piso en calle de la Paloma, Madrid'}",https://img3.idealista.com/blur/WEB_LISTING/0/id.pro.es.image.master/4c/26/bd/608683022.jpg,https://www.idealista.com/inmueble/82958692/
"calle Escalinata, 19",2,es,{'typology': 'flat'},462,Centro,True,,3,False,False,False,False,False,40.4175683,-3.709495,Madrid,Palacio,False,22,rent,,1950.0,17.0,1886119,flat,Madrid,3,True,118.0,good,"{'subtitle': 'Palacio, Madrid', 'title': 'Piso en calle Escalinata, 19'}",https://img3.idealista.com/blur/WEB_LISTING/0/id.pro.es.image.master/ee/d5/b4/83449298.jpg,https://www.idealista.com/inmueble/1886119/
barrio Ciudad Universitaria,2,es,{'typology': 'flat'},3527,Moncloa,True,AF005,1,False,False,True,False,False,40.4475416,-3.7136565,Madrid,Ciudad Universitaria,False,20,rent,,1300.0,16.0,83269557,flat,Madrid,2,False,80.0,good,"{'subtitle': 'Ciudad Universitaria, Madrid', 'title': 'Piso'}",https://img3.idealista.com/blur/WEB_LISTING/0/id.pro.es.image.master/ba/54/3d/618197402.jpg,https://www.idealista.com/inmueble/83269557/
"calle del Bronce, 23",2,es,{'typology': 'flat'},3353,Arganzuela,True,,6,False,False,True,False,False,40.3890517,-3.6882166,Madrid,Legazpi,False,16,rent,"{'hasParkingSpace': True, 'isParkingSpaceIncludedInPrice': False, 'parkingSpacePrice': 100.0}",1400.0,15.0,82824526,flat,Madrid,3,True,94.0,good,"{'subtitle': 'Legazpi, Madrid', 'title': 'Piso en calle del Bronce, 23'}",https://img3.idealista.com/blur/WEB_LISTING/0/id.pro.es.image.master/2f/11/4b/605768633.jpg,https://www.idealista.com/inmueble/82824526/
"ronda de Atocha, 15",1,es,{'typology': 'flat'},1312,Arganzuela,True,,3,False,False,True,False,False,40.4068126,-3.6956035,Madrid,Palos de Moguer,False,13,rent,"{'hasParkingSpace': True, 'isParkingSpaceIncludedInPrice': True}",1300.0,21.0,82479760,flat,Madrid,1,True,62.0,good,"{'subtitle': 'Palos de Moguer, Madrid', 'title': 'Piso en ronda de Atocha, 15'}",https://img3.idealista.com/blur/WEB_LISTING/0/id.pro.es.image.master/43/a7/0e/598622300.jpg,https://www.idealista.com/inmueble/82479760/
barrio Recoletos,2,es,"{'typology': 'flat', 'subTypology': 'penthouse'}",2079,Salamanca,True,7777,7,False,False,True,False,False,40.4240558,-3.6815995,Madrid,Recoletos,False,12,rent,,3300.0,15.0,82460792,penthouse,Madrid,3,False,220.0,good,"{'subtitle': 'Recoletos, Madrid', 'title': 'Ático'}",https://img3.idealista.com/blur/WEB_LISTING/0/id.pro.es.image.master/d7/06/6b/598246270.jpg,https://www.idealista.com/inmueble/82460792/
barrio Castellana,3,es,"{'typology': 'flat', 'subTypology': 'penthouse'}",1936,Salamanca,True,P050M152,5,False,False,True,False,False,40.4292949,-3.6884279,Madrid,Castellana,False,28,rent,"{'hasParkingSpace': True, 'isParkingSpaceIncludedInPrice': True}",4000.0,13.0,39265874,penthouse,Madrid,4,False,314.0,good,"{'subtitle': 'Castellana, Madrid', 'title': 'Ático'}",https://img3.idealista.com/blur/WEB_LISTING/0/id.pro.es.image.master/17/2f/80/256817148.jpg,https://www.idealista.com/inmueble/39265874/
barrio Chueca-Justicia,3,es,{'typology': 'flat'},1450,Centro,True,,1,False,False,True,False,False,40.4288515,-3.6980745,Madrid,Chueca-Justicia,False,24,rent,"{'hasParkingSpace': True, 'isParkingSpaceIncludedInPrice': False, 'parkingSpacePrice': 100.0}",3900.0,29.0,82422122,flat,Madrid,3,False,134.0,good,"{'subtitle': 'Chueca-Justicia, Madrid', 'title': 'Piso'}",https://img3.idealista.com/blur/WEB_LISTING/0/id.pro.es.image.master/4f/eb/07/597791095.jpg,https://www.idealista.com/inmueble/82422122/
castilla,1,es,{'typology': 'flat'},4041,Tetuán,True,,4,False,False,True,False,False,40.4529777,-3.7060312,Madrid,Bellas Vistas,False,22,rent,,1000.0,17.0,82721457,flat,Madrid,2,False,60.0,good,"{'subtitle': 'Bellas Vistas, Madrid', 'title': 'Piso en castilla'}",https://img3.idealista.com/blur/WEB_LISTING/90/id.pro.es.image.master/62/c9/02/605632000.jpg,https://www.idealista.com/inmueble/82721457/
"calle del General Díaz Porlier, 36",1,es,{'typology': 'flat'},2645,Salamanca,False,,3,False,False,True,True,False,40.4282023,-3.6768381,Madrid,Goya,False,14,rent,,1200.0,19.0,82881640,flat,Madrid,2,True,63.0,good,"{'subtitle': 'Goya, Madrid', 'title': 'Piso en calle del General Díaz Porlier, 36'}",https://img3.idealista.com/blur/WEB_LISTING/0/id.pro.es.image.master/a2/45/01/606976235.jpg,https://www.idealista.com/inmueble/82881640/
"calle de Vallehermoso, Madrid",1,es,{'typology': 'flat'},1867,Chamberí,False,,bj,False,False,True,False,False,40.433351,-3.7065789,Madrid,Arapiles,False,4,rent,,1000.0,16.0,83244310,flat,Madrid,2,False,63.0,good,"{'subtitle': 'Arapiles, Madrid', 'title': 'Piso en calle de Vallehermoso, Madrid'}",https://img3.idealista.com/blur/WEB_LISTING/0/id.pro.es.image.master/ed/a2/26/614277120.jpg,https://www.idealista.com/inmueble/83244310/
"calle Caballero de los Espejos, 5",2,es,"{'typology': 'chalet', 'subTypology': 'independantHouse'}",10098,Fuencarral,False,,,False,False,,False,False,40.5065853,-3.6874911,Madrid,Tres Olivos - Valverde,False,14,rent,,1900.0,7.0,82876531,chalet,Madrid,3,True,269.0,good,"{'subtitle': 'Tres Olivos - Valverde, Madrid', 'title': 'Casa independiente en calle Caballero de los Espejos, 5'}",https://img3.idealista.com/blur/WEB_LISTING/0/id.pro.es.image.master/3b/b5/82/606833405.jpg,https://www.idealista.com/inmueble/82876531/
"calle de Ponferrada, 12",1,es,{'typology': 'flat'},6476,Fuencarral,True,,1,False,False,True,False,False,40.4745227,-3.7129345,Madrid,Pilar,False,21,rent,,875.0,16.0,82813351,flat,Madrid,2,True,55.0,good,"{'subtitle': 'Pilar, Madrid', 'title': 'Piso en calle de Ponferrada, 12'}",https://img3.idealista.com/blur/WEB_LISTING/0/id.pro.es.image.master/c0/e3/46/610672335.jpg,https://www.idealista.com/inmueble/82813351/
"calle de la Hierbabuena, Madrid",1,es,{'typology': 'flat'},4618,Tetuán,False,,en,False,False,True,False,False,40.4581556,-3.7019194,Madrid,Berruguete,False,12,rent,,700.0,18.0,82749515,flat,Madrid,1,False,40.0,good,"{'subtitle': 'Berruguete, Madrid', 'title': 'Piso en calle de la Hierbabuena, Madrid'}",https://img3.idealista.com/blur/WEB_LISTING/0/id.pro.es.image.master/95/d6/32/604112026.jpg,https://www.idealista.com/inmueble/82749515/
barrio Aluche,1,es,{'typology': 'flat'},5289,Latina,False,VI-000-030-687-030,,False,False,,False,False,40.3881965,-3.7542189,Madrid,Aluche,False,12,rent,,605.0,9.0,39868606,flat,Madrid,3,False,67.0,good,"{'subtitle': 'Aluche, Madrid', 'title': 'Piso'}",https://img3.idealista.com/blur/WEB_LISTING/0/id.pro.es.image.master/84/f8/17/268262433.jpg,https://www.idealista.com/inmueble/39868606/
barrio Trafalgar,1,es,{'typology': 'flat'},1448,Chamberí,False,3818,bj,False,False,True,False,False,40.4296489,-3.7030175,Madrid,Trafalgar,False,10,rent,,850.0,27.0,83242450,flat,Madrid,1,False,31.0,good,"{'subtitle': 'Trafalgar, Madrid', 'title': 'Piso'}",https://img3.idealista.com/blur/WEB_LISTING/0/id.pro.es.image.master/86/31/cc/614243450.jpg,https://www.idealista.com/inmueble/83242450/
calle del Cerro Blanco,1,es,{'typology': 'flat'},4111,Usera,False,235-VI-000-030-686-715,5,False,False,True,False,False,40.3812452,-3.7181596,Madrid,Zofío,False,7,rent,,840.0,10.0,82384713,flat,Madrid,2,False,83.0,good,"{'subtitle': 'Zofío, Madrid', 'title': 'Piso en calle del Cerro Blanco'}",https://img3.idealista.com/blur/WEB_LISTING/0/id.pro.es.image.master/ce/cd/5d/597083256.jpg,https://www.idealista.com/inmueble/82384713/
barrio Zofío,1,es,{'typology': 'flat'},4187,Usera,False,VI-000-030-686-715,,True,False,True,False,False,40.3804154,-3.7176248,Madrid,Zofío,False,7,rent,,840.0,10.0,82033609,flat,Madrid,2,False,83.0,good,"{'subtitle': 'Zofío, Madrid', 'title': 'Piso'}",https://img3.idealista.com/blur/WEB_LISTING/0/id.pro.es.image.master/54/1b/84/590051993.jpg,https://www.idealista.com/inmueble/82033609/
"calle Barquillo, 25",1,es,{'typology': 'flat'},981,Centro,False,,2,False,False,True,False,False,40.4226713,-3.6956706,Madrid,Chueca-Justicia,False,2,rent,,1100.0,15.0,1932335,flat,Madrid,1,True,75.0,good,"{'subtitle': 'Chueca-Justicia, Madrid', 'title': 'Piso en calle Barquillo, 25'}",https://img3.idealista.com/blur/WEB_LISTING/0/id.pro.es.image.master/ed/c9/36/4190289.jpg,https://www.idealista.com/inmueble/1932335/
barrio El Viso,4,es,{'typology': 'flat'},3861,Chamartín,True,7672,6,False,False,True,False,False,40.4490568,-3.6877361,Madrid,El Viso,False,14,rent,"{'hasParkingSpace': True, 'isParkingSpaceIncludedInPrice': True}",3499.0,21.0,83429704,flat,Madrid,4,False,170.0,good,"{'subtitle': 'El Viso, Madrid', 'title': 'Piso'}",https://img3.idealista.com/blur/WEB_LISTING/0/id.pro.es.image.master/88/7e/24/617861177.jpg,https://www.idealista.com/inmueble/83429704/
"calle de Carlota O’Neill, 34",1,es,{'typology': 'flat'},5607,Ciudad Lineal,True,,2,False,False,True,True,False,40.4441175,-3.6485861,Madrid,San Pascual,False,15,rent,,795.0,11.0,83285536,flat,Madrid,2,True,70.0,good,"{'subtitle': 'San Pascual, Madrid', 'title': 'Piso en calle de Carlota O’Neill, 34'}",https://img3.idealista.com/blur/WEB_LISTING/90/id.pro.es.image.master/36/6f/f1/615104943.jpg,https://www.idealista.com/inmueble/83285536/
"calle del Arquitecto Rafael Leoz, Madrid",3,es,"{'typology': 'chalet', 'subTypology': 'semidetachedHouse'}",8365,Moncloa,False,W-02E2YN,,False,False,,True,False,40.4520035,-3.7914142,Madrid,Aravaca,False,30,rent,"{'hasParkingSpace': True, 'isParkingSpaceIncludedInPrice': True}",2200.0,10.0,82866432,chalet,Madrid,3,False,219.0,good,"{'subtitle': 'Aravaca, Madrid', 'title': 'Chalet pareado en calle del Arquitecto Rafael Leoz, Madrid'}",https://img3.idealista.com/blur/WEB_LISTING/0/id.pro.es.image.master/c7/ab/c6/606657447.jpg,https://www.idealista.com/inmueble/82866432/
barrio Fuentelarreina,3,es,{'typology': 'flat'},7495,Fuencarral,True,MIA01431,2,False,False,True,True,True,40.47819,-3.74033,Madrid,Fuentelarreina,False,32,rent,"{'hasParkingSpace': True, 'isParkingSpaceIncludedInPrice': True}",2200.0,13.0,82877220,flat,Madrid,3,False,173.0,good,"{'subtitle': 'Fuentelarreina, Madrid', 'title': 'Piso'}",https://img3.idealista.com/blur/WEB_LISTING/0/id.pro.es.image.master/bf/41/5a/614696490.jpg,https://www.idealista.com/inmueble/82877220/
calle de las Islas Cíes,2,es,{'typology': 'flat'},7253,Fuencarral,False,RP72201846948,5,False,False,True,False,False,40.48112,-3.71733,Madrid,Peñagrande,False,30,rent,,1100.0,11.0,82407411,flat,Madrid,4,False,102.0,good,"{'subtitle': 'Peñagrande, Madrid', 'title': 'Piso en calle de las Islas Cíes'}",https://img3.idealista.com/blur/WEB_LISTING/0/id.pro.es.image.master/df/71/fb/597492319.jpg,https://www.idealista.com/inmueble/82407411/
"calle Malcampo, 18",1,es,{'typology': 'flat'},4147,Chamartín,True,3443-01654,3,False,False,False,False,False,40.4456423,-3.6733177,Madrid,Ciudad Jardín,False,20,rent,,750.0,12.0,37600591,flat,Madrid,2,True,63.0,good,"{'subtitle': 'Ciudad Jardín, Madrid', 'title': 'Piso en calle Malcampo, 18'}",https://img3.idealista.com/blur/WEB_LISTING/0/id.pro.es.image.master/fa/3c/34/221173423.jpg,https://www.idealista.com/inmueble/37600591/
"calle de Martín de los Heros, Madrid, 8",1,es,{'typology': 'flat'},1144,Moncloa,True,0015-04698,4,False,False,True,False,True,40.4242458,-3.7132885,Madrid,Argüelles,False,54,rent,"{'hasParkingSpace': True, 'isParkingSpaceIncludedInPrice': False, 'parkingSpacePrice': 150.0}",1100.0,20.0,82527200,flat,Madrid,1,True,55.0,good,"{'subtitle': 'Argüelles, Madrid', 'title': 'Piso en calle de Martín de los Heros, Madrid, 8'}",https://img3.idealista.com/blur/WEB_LISTING/0/id.pro.es.image.master/fc/13/0b/602732280.jpg,https://www.idealista.com/inmueble/82527200/
velazquez,2,es,{'typology': 'flat'},2088,Salamanca,True,,3,False,False,True,True,False,40.4287002,-3.6852326,Madrid,Recoletos,False,15,rent,"{'hasParkingSpace': True, 'isParkingSpaceIncludedInPrice': False, 'parkingSpacePrice': 180.0}",2650.0,18.0,83310808,flat,Madrid,3,False,148.0,good,"{'subtitle': 'Recoletos, Madrid', 'title': 'Piso en velazquez'}",https://img3.idealista.com/blur/WEB_LISTING/0/id.pro.es.image.master/93/5d/d0/615527805.jpg,https://www.idealista.com/inmueble/83310808/
"calle Dracena, Madrid",2,es,{'typology': 'flat'},5959,Chamartín,True,AP05MAD,3,False,False,True,True,False,40.4632335,-3.6693203,Madrid,Nueva España,False,24,rent,,1500.0,17.0,82939120,flat,Madrid,2,False,90.0,good,"{'subtitle': 'Nueva España, Madrid', 'title': 'Piso en calle Dracena, Madrid'}",https://img3.idealista.com/blur/WEB_LISTING/0/id.pro.es.image.master/06/35/1f/607978507.jpg,https://www.idealista.com/inmueble/82939120/
"calle Enrique Granados, 8",2,es,{'typology': 'flat'},10048,Zona norte,True,,1,False,False,True,True,False,40.4590637,-3.8090103,Pozuelo de Alarcón,Zona norte,False,21,rent,"{'hasParkingSpace': True, 'isParkingSpaceIncludedInPrice': True}",1500.0,11.0,83042609,flat,Madrid,3,True,140.0,good,"{'subtitle': 'Zona norte, Pozuelo de Alarcón', 'title': 'Piso en calle Enrique Granados, 8'}",https://img3.idealista.com/blur/WEB_LISTING/0/id.pro.es.image.master/7b/02/24/610441732.jpg,https://www.idealista.com/inmueble/83042609/
barrio Prosperidad,1,es,{'typology': 'flat'},4067,Chamartín,False,FS-A1-1543,2,False,False,True,True,False,40.4416553,-3.6690776,Madrid,Prosperidad,False,14,rent,,875.0,15.0,83128547,flat,Madrid,1,False,60.0,good,"{'subtitle': 'Prosperidad, Madrid', 'title': 'Piso'}",https://img3.idealista.com/blur/WEB_LISTING/0/id.pro.es.image.master/cb/5d/1f/613632779.jpg,https://www.idealista.com/inmueble/83128547/
"calle de la Bahía de Cádiz, Madrid",2,es,{'typology': 'flat'},10792,Barajas,True,,bj,False,False,True,False,False,40.4633358,-3.5923492,Madrid,Campo de las Naciones-Corralejos,False,24,rent,"{'hasParkingSpace': True, 'isParkingSpaceIncludedInPrice': True}",1150.0,12.0,83121986,flat,Madrid,2,False,98.0,good,"{'subtitle': 'Campo de las Naciones-Corralejos, Madrid', 'title': 'Piso en calle de la Bahía de Cádiz, Madrid'}",https://img3.idealista.com/blur/WEB_LISTING/0/id.pro.es.image.master/f7/f1/11/611949673.jpg,https://www.idealista.com/inmueble/83121986/
calle Oquendo,2,es,{'typology': 'flat'},3270,Chamartín,True,U0N56N9K,1,False,False,False,False,True,40.4422425,-3.6851063,Madrid,El Viso,False,26,rent,"{'hasParkingSpace': True, 'isParkingSpaceIncludedInPrice': True}",5700.0,23.0,82764105,flat,Madrid,3,False,245.0,good,"{'subtitle': 'El Viso, Madrid', 'title': 'Piso en calle Oquendo'}",https://img3.idealista.com/blur/WEB_LISTING/0/id.pro.es.image.master/ab/1f/78/604441983.jpg,https://www.idealista.com/inmueble/82764105/
barrio Valdemarín,4,es,{'typology': 'flat'},9082,Moncloa,True,12450,bj,False,False,True,False,False,40.4711,-3.78418,Madrid,Valdemarín,False,24,rent,"{'hasParkingSpace': True, 'isParkingSpaceIncludedInPrice': True}",2200.0,12.0,32708523,flat,Madrid,4,False,188.0,good,"{'subtitle': 'Valdemarín, Madrid', 'title': 'Piso'}",https://img3.idealista.com/blur/WEB_LISTING/0/id.pro.es.image.master/bd/00/bc/145775815.jpg,https://www.idealista.com/inmueble/32708523/
SERRANO,2,es,{'typology': 'flat'},2871,Salamanca,True,7/1093,2,False,False,True,False,False,40.438342,-3.6857379,Madrid,Castellana,False,26,rent,"{'hasParkingSpace': True, 'isParkingSpaceIncludedInPrice': False, 'parkingSpacePrice': 2200.0}",2200.0,19.0,82926881,flat,Madrid,3,False,118.0,good,"{'subtitle': 'Castellana, Madrid', 'title': 'Piso en SERRANO'}",https://img3.idealista.com/blur/WEB_LISTING/0/id.pro.es.image.master/19/27/38/607714535.jpg,https://www.idealista.com/inmueble/82926881/
barrio El Viso,3,es,{'typology': 'flat'},3251,Chamartín,True,,1,False,False,True,False,False,40.4425425,-3.6863063,Madrid,El Viso,False,19,rent,"{'hasParkingSpace': True, 'isParkingSpaceIncludedInPrice': True}",5700.0,23.0,82528960,flat,Madrid,4,False,250.0,good,"{'subtitle': 'El Viso, Madrid', 'title': 'Piso'}",https://img3.idealista.com/blur/WEB_LISTING/0/id.pro.es.image.master/12/68/22/599582874.jpg,https://www.idealista.com/inmueble/82528960/
"calle de los Estudiantes, 5",2,es,{'typology': 'flat'},3426,Moncloa,True,2802-015087-01,2,False,False,True,False,False,40.4468036,-3.7125611,Madrid,Ciudad Universitaria,False,19,rent,,1500.0,12.0,82773848,flat,Madrid,3,True,125.0,good,"{'subtitle': 'Ciudad Universitaria, Madrid', 'title': 'Piso en calle de los Estudiantes, 5'}",https://img3.idealista.com/blur/WEB_LISTING/0/id.pro.es.image.master/7a/60/09/604659189.jpg,https://www.idealista.com/inmueble/82773848/
"calle de Colón, 3 ,5",2,es,{'typology': 'flat'},831,Centro,True,,3,False,False,False,False,False,40.423744,-3.7010169,Madrid,Malasaña-Universidad,False,25,rent,,1500.0,11.0,81202422,flat,Madrid,2,True,140.0,good,"{'subtitle': 'Malasaña-Universidad, Madrid', 'title': 'Piso en calle de Colón, 3 ,5'}",https://img3.idealista.com/blur/WEB_LISTING/180/id.pro.es.image.master/ec/23/b4/572162207.jpg,https://www.idealista.com/inmueble/81202422/
"calle de Josefa Valcárcel, 12",3,es,"{'typology': 'chalet', 'subTypology': 'terracedHouse'}",5935,Ciudad Lineal,False,,,False,False,,False,False,40.4483883,-3.6477701,Madrid,San Pascual,False,40,rent,"{'hasParkingSpace': True, 'isParkingSpaceIncludedInPrice': True}",2300.0,9.0,81655224,chalet,Madrid,4,True,260.0,good,"{'subtitle': 'San Pascual, Madrid', 'title': 'Chalet adosado en calle de Josefa Valcárcel, 12'}",https://img3.idealista.com/blur/WEB_LISTING/0/id.pro.es.image.master/4b/89/e5/581686260.jpg,https://www.idealista.com/inmueble/81655224/
Encinar de los Reyes,2,es,"{'typology': 'flat', 'subTypology': 'duplex'}",11454,Encinar de los Reyes,True,,bj,False,False,True,False,False,40.5113656,-3.6508959,La Moraleja,,False,24,rent,"{'hasParkingSpace': True, 'isParkingSpaceIncludedInPrice': True}",2200.0,13.0,82519771,duplex,Madrid,3,False,165.0,good,"{'subtitle': 'Encinar de los Reyes, La Moraleja', 'title': 'Dúplex'}",https://img3.idealista.com/blur/WEB_LISTING/0/id.pro.es.image.master/c6/f9/76/599378640.jpg,https://www.idealista.com/inmueble/82519771/
"calle de Canillas, Madrid",1,es,{'typology': 'flat'},4011,Chamartín,False,CANILLAS,3,False,False,True,False,False,40.4436294,-3.6726921,Madrid,Prosperidad,False,11,rent,,1150.0,18.0,83077495,flat,Madrid,3,False,63.0,good,"{'subtitle': 'Prosperidad, Madrid', 'title': 'Piso en calle de Canillas, Madrid'}",https://img3.idealista.com/blur/WEB_LISTING/0/id.pro.es.image.master/bc/ae/d9/611126361.jpg,https://www.idealista.com/inmueble/83077495/
"baracaldo, 24",1,es,{'typology': 'flat'},5928,Tetuán,False,Baracaldo,1,False,False,True,False,False,40.4698945,-3.700241,Madrid,Valdeacederas,False,6,rent,,780.0,20.0,83020099,flat,Madrid,1,True,40.0,good,"{'subtitle': 'Valdeacederas, Madrid', 'title': 'Piso en baracaldo, 24'}",https://img3.idealista.com/blur/WEB_LISTING/0/id.pro.es.image.master/1e/cf/3c/611469526.jpg,https://www.idealista.com/inmueble/83020099/
barrio Cuzco-Castillejos,3,es,{'typology': 'flat'},4448,Tetuán,True,,6,False,False,True,False,False,40.4550711,-3.6894903,Madrid,Cuzco-Castillejos,False,19,rent,,3000.0,14.0,82597395,flat,Madrid,4,False,220.0,good,"{'subtitle': 'Cuzco-Castillejos, Madrid', 'title': 'Piso'}",https://img3.idealista.com/blur/WEB_LISTING/0/id.pro.es.image.master/f0/11/b5/600969575.jpg,https://www.idealista.com/inmueble/82597395/
"calle de Mariano Benlliure, Madrid",1,es,{'typology': 'flat'},4298,Puente de Vallecas,True,Mariano Benlliure 685,3,False,False,False,False,False,40.3869918,-3.6716064,Madrid,San Diego,False,9,rent,,600.0,10.0,82671910,flat,Madrid,2,False,59.0,good,"{'subtitle': 'San Diego, Madrid', 'title': 'Piso en calle de Mariano Benlliure, Madrid'}",https://img3.idealista.com/blur/WEB_LISTING/0/id.pro.es.image.master/e5/37/9e/602400580.jpg,https://www.idealista.com/inmueble/82671910/
barrio Recoletos,3,es,{'typology': 'flat'},2121,Salamanca,True,Retiro,6,False,False,True,False,False,40.4209737,-3.6797494,Madrid,Recoletos,False,9,rent,,2300.0,12.0,82965417,flat,Madrid,4,False,200.0,good,"{'subtitle': 'Recoletos, Madrid', 'title': 'Piso'}",https://img3.idealista.com/blur/WEB_LISTING/0/id.pro.es.image.master/34/0a/e4/608822691.jpg,https://www.idealista.com/inmueble/82965417/
calle de la Princesa,2,es,{'typology': 'flat'},1852,Moncloa,False,cla0-rebeca-arguelles1700,4,False,False,True,False,False,40.4301462,-3.7169998,Madrid,Argüelles,False,8,rent,,1500.0,13.0,82424341,flat,Madrid,2,False,115.0,,"{'subtitle': 'Argüelles, Madrid', 'title': 'Piso en calle de la Princesa'}",https://img3.idealista.com/blur/WEB_LISTING/0/id.pro.es.image.master/67/1c/d6/615534751.jpg,https://www.idealista.com/inmueble/82424341/
barrio Recoletos,3,es,{'typology': 'flat'},2218,Salamanca,True,Retiro,6,False,False,True,False,False,40.4230737,-3.6793494,Madrid,Recoletos,False,13,rent,,2300.0,12.0,82841106,flat,Madrid,4,False,200.0,good,"{'subtitle': 'Recoletos, Madrid', 'title': 'Piso'}",https://img3.idealista.com/blur/WEB_LISTING/0/id.pro.es.image.master/cc/2b/c3/606163267.jpg,https://www.idealista.com/inmueble/82841106/
Fuencasa,1,es,{'typology': 'flat'},14284,Fuencasa,False,VI-000-030-664-779,,True,False,True,False,False,40.4298828,-3.5363033,San Fernando de Henares,,False,12,rent,,675.0,9.0,82033619,flat,Madrid,3,False,74.0,good,"{'subtitle': 'Fuencasa, San Fernando de Henares', 'title': 'Piso'}",https://img3.idealista.com/blur/WEB_LISTING/0/id.pro.es.image.master/57/98/97/590052284.jpg,https://www.idealista.com/inmueble/82033619/
barrio Los Ángeles,1,es,{'typology': 'flat'},7561,Villaverde,False,VI-000-030-686-757,,False,False,,False,False,40.3486696,-3.7018462,Madrid,Los Ángeles,False,13,rent,,485.0,8.0,40520106,flat,Madrid,2,False,61.0,good,"{'subtitle': 'Los Ángeles, Madrid', 'title': 'Piso'}",https://img3.idealista.com/blur/WEB_LISTING/0/id.pro.es.image.master/6c/89/30/282961931.jpg,https://www.idealista.com/inmueble/40520106/
calle Toledo,1,es,{'typology': 'flat'},14240,Fuencasa,False,235-VI-000-030-664-779,4,False,False,True,False,False,40.429696,-3.5368003,San Fernando de Henares,,False,12,rent,,675.0,9.0,82073033,flat,Madrid,3,False,74.0,good,"{'subtitle': 'Fuencasa, San Fernando de Henares', 'title': 'Piso en calle Toledo'}",https://img3.idealista.com/blur/WEB_LISTING/0/id.pro.es.image.master/b3/f6/ba/590831479.jpg,https://www.idealista.com/inmueble/82073033/
"amparo, 46",1,es,{'typology': 'flat'},887,Centro,True,,3,False,False,True,False,False,40.4087761,-3.702507,Madrid,Lavapiés-Embajadores,False,6,rent,,1100.0,18.0,2076963,flat,Madrid,2,True,60.0,good,"{'subtitle': 'Lavapiés-Embajadores, Madrid', 'title': 'Piso en amparo, 46'}",https://img3.idealista.com/blur/WEB_LISTING/0/id.pro.es.image.master/b1/66/50/1138786.jpg,https://www.idealista.com/inmueble/2076963/
paseo de la castellana,1,es,{'typology': 'flat'},4214,Tetuán,True,AM1811010,6,False,False,True,True,True,40.4530214,-3.690131,Madrid,Cuatro Caminos,False,21,rent,,1700.0,16.0,83018348,flat,Madrid,1,False,105.0,good,"{'subtitle': 'Cuatro Caminos, Madrid', 'title': 'Piso en paseo de la castellana'}",https://img3.idealista.com/blur/WEB_LISTING/0/id.pro.es.image.master/7a/d9/b2/609907693.jpg,https://www.idealista.com/inmueble/83018348/
"calle de Recoletos, 3",2,es,{'typology': 'flat'},1307,Salamanca,True,,4,False,False,True,False,False,40.4223232,-3.6906327,Madrid,Recoletos,False,10,rent,"{'hasParkingSpace': True, 'isParkingSpaceIncludedInPrice': True}",2000.0,33.0,82829809,flat,Madrid,1,True,60.0,good,"{'subtitle': 'Recoletos, Madrid', 'title': 'Piso en calle de Recoletos, 3'}",https://img3.idealista.com/blur/WEB_LISTING/0/id.pro.es.image.master/3c/20/e1/606231840.jpg,https://www.idealista.com/inmueble/82829809/
"barbieri, 4",2,es,"{'typology': 'flat', 'subTypology': 'duplex'}",671,Centro,True,3248-14101,4,False,False,True,True,True,40.4206695,-3.6982297,Madrid,Chueca-Justicia,False,29,rent,,1650.0,16.0,82695561,duplex,Madrid,2,True,102.0,good,"{'subtitle': 'Chueca-Justicia, Madrid', 'title': 'Dúplex en barbieri, 4'}",https://img3.idealista.com/blur/WEB_LISTING/0/id.pro.es.image.master/83/8f/d6/602894826.jpg,https://www.idealista.com/inmueble/82695561/
avenida Burgos,2,es,{'typology': 'flat'},6530,Chamartín,True,ALQ-62809,2,True,False,True,True,False,40.4718023,-3.6776186,Madrid,Castilla,False,41,rent,"{'hasParkingSpace': True, 'isParkingSpaceIncludedInPrice': True}",3400.0,18.0,81850808,flat,Madrid,4,False,190.0,good,"{'subtitle': 'Castilla, Madrid', 'title': 'Piso en avenida Burgos'}",https://img3.idealista.com/blur/WEB_LISTING/0/id.pro.es.image.master/b1/a8/40/586202149.jpg,https://www.idealista.com/inmueble/81850808/
"calle Olivar, Madrid",1,es,{'typology': 'flat'},763,Centro,True,04036,1,False,False,False,True,True,40.4098765,-3.7027191,Madrid,Lavapiés-Embajadores,False,24,rent,,850.0,17.0,83292257,flat,Madrid,1,False,50.0,good,"{'subtitle': 'Lavapiés-Embajadores, Madrid', 'title': 'Piso en calle Olivar, Madrid'}",https://img3.idealista.com/blur/WEB_LISTING/0/id.pro.es.image.master/0d/c8/90/615122502.jpg,https://www.idealista.com/inmueble/83292257/
"calle de Valderribas, Madrid",2,es,{'typology': 'flat'},2832,Retiro,True,W-02DQWB,5,False,False,True,True,False,40.4040037,-3.6751184,Madrid,Pacífico,False,35,rent,"{'hasParkingSpace': True, 'isParkingSpaceIncludedInPrice': True}",1690.0,13.0,82752697,flat,Madrid,3,False,126.0,good,"{'subtitle': 'Pacífico, Madrid', 'title': 'Piso en calle de Valderribas, Madrid'}",https://img3.idealista.com/blur/WEB_LISTING/0/id.pro.es.image.master/6a/ca/ff/604168076.jpg,https://www.idealista.com/inmueble/82752697/
"nanclares de Oca, 20",2,es,{'typology': 'flat'},11264,San Blas,True,,3,False,False,True,False,False,40.445155,-3.57644,Madrid,Rejas,False,22,rent,,975.0,11.0,83346319,flat,Madrid,2,True,85.0,good,"{'subtitle': 'Rejas, Madrid', 'title': 'Piso en nanclares de Oca, 20'}",https://img3.idealista.com/blur/WEB_LISTING/0/id.pro.es.image.master/0f/e5/25/616236859.jpg,https://www.idealista.com/inmueble/83346319/
calle de Francisco Silvela,1,es,"{'typology': 'flat', 'subTypology': 'studio'}",3192,Salamanca,False,RP79201849456,7,False,False,True,False,False,40.4351318,-3.6752886,Madrid,Guindalera,False,24,rent,,850.0,31.0,83196947,studio,Madrid,0,False,27.0,good,"{'subtitle': 'Guindalera, Madrid', 'title': 'Estudio en calle de Francisco Silvela'}",https://img3.idealista.com/blur/WEB_LISTING/0/id.pro.es.image.master/4e/e4/fe/613252941.jpg,https://www.idealista.com/inmueble/83196947/
calle del Corazón de María,5,es,{'typology': 'flat'},3953,Chamartín,True,03529,10,False,False,True,True,True,40.4412758,-3.6704568,Madrid,Prosperidad,False,20,rent,"{'hasParkingSpace': True, 'isParkingSpaceIncludedInPrice': True}",4000.0,10.0,82954447,flat,Madrid,5,False,400.0,good,"{'subtitle': 'Prosperidad, Madrid', 'title': 'Piso en calle del Corazón de María'}",https://img3.idealista.com/blur/WEB_LISTING/0/id.pro.es.image.master/eb/0c/7b/608431974.jpg,https://www.idealista.com/inmueble/82954447/
pelayo,1,es,{'typology': 'flat'},761,Centro,False,02077,bj,False,False,True,True,True,40.4218734,-3.6983435,Madrid,Chueca-Justicia,False,28,rent,,1250.0,26.0,82061996,flat,Madrid,1,False,49.0,good,"{'subtitle': 'Chueca-Justicia, Madrid', 'title': 'Piso en pelayo'}",https://img3.idealista.com/blur/WEB_LISTING/0/id.pro.es.image.master/23/f7/fb/590595960.jpg,https://www.idealista.com/inmueble/82061996/
"calle de Navaleno, Madrid",4,es,{'typology': 'flat'},6978,Hortaleza,True,03162,4,False,False,True,True,True,40.4707183,-3.6622656,Madrid,Apóstol Santiago,False,25,rent,"{'hasParkingSpace': True, 'isParkingSpaceIncludedInPrice': True}",2400.0,11.0,82736575,flat,Madrid,5,False,225.0,good,"{'subtitle': 'Apóstol Santiago, Madrid', 'title': 'Piso en calle de Navaleno, Madrid'}",https://img3.idealista.com/blur/WEB_LISTING/0/id.pro.es.image.master/8b/dc/08/603718684.jpg,https://www.idealista.com/inmueble/82736575/
"calle Espejo, Madrid",1,es,"{'typology': 'flat', 'subTypology': 'penthouse'}",620,Centro,True,03652,6,False,False,True,True,True,40.4166342,-3.711489,Madrid,Palacio,False,25,rent,,1400.0,16.0,83002105,penthouse,Madrid,2,False,90.0,good,"{'subtitle': 'Palacio, Madrid', 'title': 'Ático en calle Espejo, Madrid'}",https://img3.idealista.com/blur/WEB_LISTING/0/id.pro.es.image.master/20/a5/c6/612687265.jpg,https://www.idealista.com/inmueble/83002105/
"calle del Hierro, Madrid, 4 F",2,es,{'typology': 'flat'},2999,Arganzuela,True,,2,False,False,True,True,False,40.39144,-3.69156,Madrid,Legazpi,False,65,rent,"{'hasParkingSpace': True, 'isParkingSpaceIncludedInPrice': True}",1150.0,12.0,83219532,flat,Madrid,2,True,97.0,good,"{'subtitle': 'Legazpi, Madrid', 'title': 'Piso en calle del Hierro, Madrid, 4 F'}",https://img3.idealista.com/blur/WEB_LISTING/0/id.pro.es.image.master/48/75/72/613745704.jpg,https://www.idealista.com/inmueble/83219532/
Encinar de los Reyes,5,es,"{'typology': 'chalet', 'subTypology': 'semidetachedHouse'}",11255,Encinar de los Reyes,False,A5138I,,False,False,,False,False,40.5040595,-3.6370482,La Moraleja,,False,33,rent,"{'hasParkingSpace': True, 'isParkingSpaceIncludedInPrice': True}",3450.0,11.0,82615531,chalet,Madrid,5,False,320.0,,"{'subtitle': 'Encinar de los Reyes, La Moraleja', 'title': 'Chalet pareado'}",https://img3.idealista.com/blur/WEB_LISTING/0/id.pro.es.image.master/77/d0/8b/614595886.jpg,https://www.idealista.com/inmueble/82615531/
barrio La Finca,5,es,"{'typology': 'chalet', 'subTypology': 'semidetachedHouse'}",8721,Zona Prado de Somosaguas - La Finca,False,PA7105I,,False,False,,False,False,40.4201672,-3.8070805,Pozuelo de Alarcón,La Finca,False,29,rent,"{'hasParkingSpace': True, 'isParkingSpaceIncludedInPrice': True}",4000.0,8.0,81618577,chalet,Madrid,5,False,480.0,,"{'subtitle': 'La Finca, Pozuelo de Alarcón', 'title': 'Chalet pareado'}",https://img3.idealista.com/blur/WEB_LISTING/0/id.pro.es.image.master/b4/41/49/616650038.jpg,https://www.idealista.com/inmueble/81618577/
calle de Hernani,2,es,{'typology': 'flat'},3512,Tetuán,False,MVB-A2587C,2,False,False,True,False,False,40.4482047,-3.7020754,Madrid,Cuatro Caminos,False,8,rent,,1600.0,15.0,82958195,flat,Madrid,3,False,105.0,,"{'subtitle': 'Cuatro Caminos, Madrid', 'title': 'Piso en calle de Hernani'}",https://img3.idealista.com/blur/WEB_LISTING/0/id.pro.es.image.master/de/ba/e7/608673543.jpg,https://www.idealista.com/inmueble/82958195/
barrio Valdemarín,4,es,"{'typology': 'flat', 'subTypology': 'penthouse'}",9548,Moncloa,True,12588,2,False,False,True,False,False,40.4716528,-3.7908259,Madrid,Valdemarín,False,25,rent,"{'hasParkingSpace': True, 'isParkingSpaceIncludedInPrice': True}",4000.0,10.0,35271501,penthouse,Madrid,4,False,410.0,good,"{'subtitle': 'Valdemarín, Madrid', 'title': 'Ático'}",https://img3.idealista.com/blur/WEB_LISTING/0/id.pro.es.image.master/fb/6e/4d/177731657.jpg,https://www.idealista.com/inmueble/35271501/
"calle Virgen de los Peligros, Madrid",1,es,{'typology': 'flat'},541,Centro,True,DG-VIRGEN1200,1,False,False,True,False,True,40.4183912,-3.6981811,Madrid,Huertas-Cortes,False,53,rent,,1200.0,15.0,83194967,flat,Madrid,1,False,78.0,good,"{'subtitle': 'Huertas-Cortes, Madrid', 'title': 'Piso en calle Virgen de los Peligros, Madrid'}",https://img3.idealista.com/blur/WEB_LISTING/0/id.pro.es.image.master/46/be/83/613207991.jpg,https://www.idealista.com/inmueble/83194967/
calle Araucaria,1,es,{'typology': 'flat'},4880,Tetuán,True,RP223201848680,1,False,False,True,False,False,40.4602676,-3.6976707,Madrid,Berruguete,False,18,rent,,800.0,11.0,82905954,flat,Madrid,1,False,73.0,,"{'subtitle': 'Berruguete, Madrid', 'title': 'Piso en calle Araucaria'}",https://img3.idealista.com/blur/WEB_LISTING/0/id.pro.es.image.master/c6/96/58/611831046.jpg,https://www.idealista.com/inmueble/82905954/
"calle de O'Donnell, Madrid, 36",3,es,{'typology': 'flat'},2585,Retiro,True,,3,False,False,True,False,False,40.421223,-3.6742198,Madrid,Ibiza,False,39,rent,,1600.0,11.0,83183600,flat,Madrid,4,True,145.0,good,"{'subtitle': 'Ibiza, Madrid', 'title': ""Piso en calle de O'Donnell, Madrid, 36""}",https://img3.idealista.com/blur/WEB_LISTING/0/id.pro.es.image.master/31/7a/e8/613681856.jpg,https://www.idealista.com/inmueble/83183600/
barrio Lista,1,es,{'typology': 'flat'},2808,Salamanca,False,MS-00031,6,False,False,True,True,True,40.4332305,-3.6791278,Madrid,Lista,False,42,rent,,2000.0,20.0,82040412,flat,Madrid,3,False,100.0,good,"{'subtitle': 'Lista, Madrid', 'title': 'Piso'}",https://img3.idealista.com/blur/WEB_LISTING/0/id.pro.es.image.master/1b/08/d8/590230656.jpg,https://www.idealista.com/inmueble/82040412/
velázquez,2,es,{'typology': 'flat'},2639,Salamanca,True,EE-02053,2,False,False,True,False,False,40.434399,-3.6834507,Madrid,Castellana,False,25,rent,"{'hasParkingSpace': True, 'isParkingSpaceIncludedInPrice': True}",4000.0,18.0,82835138,flat,Madrid,2,False,220.0,good,"{'subtitle': 'Castellana, Madrid', 'title': 'Piso en velázquez'}",https://img3.idealista.com/blur/WEB_LISTING/90/id.pro.es.image.master/8b/19/b5/285647714.jpg,https://www.idealista.com/inmueble/82835138/
barrio Ventas,1,es,{'typology': 'flat'},4589,Ciudad Lineal,True,HCALQ11,6,False,False,True,False,False,40.4307951,-3.6532191,Madrid,Ventas,False,13,rent,"{'hasParkingSpace': True, 'isParkingSpaceIncludedInPrice': True}",980.0,15.0,83314506,flat,Madrid,2,False,64.0,good,"{'subtitle': 'Ventas, Madrid', 'title': 'Piso'}",https://img3.idealista.com/blur/WEB_LISTING/0/id.pro.es.image.master/40/12/a9/615602960.jpg,https://www.idealista.com/inmueble/83314506/
barrio Argüelles,4,es,{'typology': 'flat'},1521,Moncloa,True,MADR14973,2,False,False,True,False,False,40.4272811,-3.7154936,Madrid,Argüelles,False,28,rent,"{'hasParkingSpace': True, 'isParkingSpaceIncludedInPrice': True}",3400.0,14.0,82835069,flat,Madrid,4,False,240.0,renew,"{'subtitle': 'Argüelles, Madrid', 'title': 'Piso'}",https://img3.idealista.com/blur/WEB_LISTING/0/id.pro.es.image.master/06/be/46/606040071.jpg,https://www.idealista.com/inmueble/82835069/
"calle de Julian Camarillo, 59",1,es,{'typology': 'flat'},7615,San Blas,True,,3,False,False,True,False,False,40.4381872,-3.6187542,Madrid,Simancas,False,26,rent,"{'hasParkingSpace': True, 'isParkingSpaceIncludedInPrice': True}",850.0,14.0,39776739,flat,Madrid,1,True,59.0,good,"{'subtitle': 'Simancas, Madrid', 'title': 'Piso en calle de Julian Camarillo, 59'}",https://img3.idealista.com/blur/WEB_LISTING/0/id.pro.es.image.master/5c/a0/48/616988150.jpg,https://www.idealista.com/inmueble/39776739/
barrio Lavapiés-Embajadores,1,es,{'typology': 'flat'},596,Centro,False,J 0072,1,False,False,False,False,False,40.4123765,-3.6999191,Madrid,Lavapiés-Embajadores,False,8,rent,,850.0,15.0,83281709,flat,Madrid,1,False,55.0,good,"{'subtitle': 'Lavapiés-Embajadores, Madrid', 'title': 'Piso'}",https://img3.idealista.com/blur/WEB_LISTING/0/id.pro.es.image.master/af/05/18/614934644.jpg,https://www.idealista.com/inmueble/83281709/
calle Espejo,1,es,"{'typology': 'flat', 'subTypology': 'penthouse'}",320,Centro,True,,6,False,False,True,True,True,40.4158844,-3.7078115,Madrid,Palacio,False,13,rent,,1400.0,18.0,83257629,penthouse,Madrid,2,False,80.0,good,"{'subtitle': 'Palacio, Madrid', 'title': 'Ático en calle Espejo'}",https://img3.idealista.com/blur/WEB_LISTING/0/id.pro.es.image.master/e4/56/8a/614542848.jpg,https://www.idealista.com/inmueble/83257629/
barrio Somosaguas,4,es,"{'typology': 'chalet', 'subTypology': 'semidetachedHouse'}",8410,Somosaguas,False,D1021,,False,False,,False,False,40.4228729,-3.8031847,Pozuelo de Alarcón,Somosaguas,False,22,rent,"{'hasParkingSpace': True, 'isParkingSpaceIncludedInPrice': True}",2500.0,6.0,81330177,chalet,Madrid,5,False,425.0,good,"{'subtitle': 'Somosaguas, Pozuelo de Alarcón', 'title': 'Chalet pareado'}",https://img3.idealista.com/blur/WEB_LISTING/0/id.pro.es.image.master/3b/36/53/574789455.jpg,https://www.idealista.com/inmueble/81330177/
Encinar de los Reyes,4,es,"{'typology': 'flat', 'subTypology': 'duplex'}",11410,Encinar de los Reyes,True,AV02,4,False,False,True,False,False,40.5111225,-3.6514777,La Moraleja,,False,27,rent,,2500.0,15.0,35750451,duplex,Madrid,4,False,170.0,good,"{'subtitle': 'Encinar de los Reyes, La Moraleja', 'title': 'Dúplex'}",https://img3.idealista.com/blur/WEB_LISTING/0/id.pro.es.image.master/49/4f/6b/186126476.jpg,https://www.idealista.com/inmueble/35750451/
Urb. este - Montepríncipe,4,es,"{'typology': 'chalet', 'subTypology': 'semidetachedHouse'}",11695,Urb. este - Montepríncipe,False,1021,,False,False,,False,False,40.4091589,-3.8419545,Boadilla del Monte,,False,28,rent,"{'hasParkingSpace': True, 'isParkingSpaceIncludedInPrice': True}",2500.0,6.0,82849140,chalet,Madrid,5,False,425.0,good,"{'subtitle': 'Urb. este - Montepríncipe, Boadilla del Monte', 'title': 'Chalet pareado'}",https://img3.idealista.com/blur/WEB_LISTING/0/id.pro.es.image.master/45/90/5b/606345015.jpg,https://www.idealista.com/inmueble/82849140/
chinchilla,1,es,{'typology': 'flat'},195,Centro,True,a99,5,False,False,True,False,False,40.4182376,-3.7051793,Madrid,Sol,False,5,rent,,850.0,16.0,83267978,flat,Madrid,1,False,53.0,good,"{'subtitle': 'Sol, Madrid', 'title': 'Piso en chinchilla'}",https://img3.idealista.com/blur/WEB_LISTING/0/id.pro.es.image.master/29/72/8f/614687383.jpg,https://www.idealista.com/inmueble/83267978/
"calle del Corazón de María, 2",5,es,"{'typology': 'flat', 'subTypology': 'duplex'}",3783,Chamartín,True,,10,False,False,True,False,False,40.4401758,-3.6718568,Madrid,Prosperidad,False,38,rent,"{'hasParkingSpace': True, 'isParkingSpaceIncludedInPrice': True}",4000.0,10.0,82964328,duplex,Madrid,5,True,400.0,good,"{'subtitle': 'Prosperidad, Madrid', 'title': 'Dúplex en calle del Corazón de María, 2'}",https://img3.idealista.com/blur/WEB_LISTING/0/id.pro.es.image.master/de/dc/84/608866180.jpg,https://www.idealista.com/inmueble/82964328/
barrio Apóstol Santiago,3,es,{'typology': 'flat'},6672,Hortaleza,True,T.L.,4,False,False,True,False,False,40.4678183,-3.6629656,Madrid,Apóstol Santiago,False,25,rent,,2390.0,10.0,82370677,flat,Madrid,4,False,241.0,good,"{'subtitle': 'Apóstol Santiago, Madrid', 'title': 'Piso'}",https://img3.idealista.com/blur/WEB_LISTING/0/id.pro.es.image.master/c8/6d/fe/596795264.jpg,https://www.idealista.com/inmueble/82370677/
"calle Antonio Casero, 10",1,es,{'typology': 'flat'},3080,Retiro,False,2806-013903-02,3,False,False,True,False,False,40.4200282,-3.6680399,Madrid,Estrella,False,15,rent,,800.0,12.0,82810920,flat,Madrid,2,True,65.0,good,"{'subtitle': 'Estrella, Madrid', 'title': 'Piso en calle Antonio Casero, 10'}",https://img3.idealista.com/blur/WEB_LISTING/0/id.pro.es.image.master/93/4f/38/605453312.jpg,https://www.idealista.com/inmueble/82810920/
